PROPERTY TYPE,ADDRESS,CITY,STATE OR PROVINCE,ZIP OR POSTAL CODE,PRICE,BEDS,BATHS,LOCATION,SQUARE FEET,LOT SIZE,YEAR BUILT,DAYS ON MARKET,$/SQUARE FEET,HOA/MONTH,URL (SEE http://www.redfin.com/buy-a-home/comparative-market-analysis FOR INFO ON PRICING),SOURCE,LATITUDE,LONGITUDE
Single Family Residential,1115 Prairie Ridge Ln,Arlington,TX,76005,518500,3,3.5,Viridian Village 1e-3,3278,8886,2016,50,158,79,http://www.redfin.com/TX/ARLINGTON/1115-PRAIRIE-RIDGE-LN-76005/home/113471550,NTREIS,32.805099,-97.08911
Single Family Residential,2207 Franklin Dr,Arlington,TX,76011,265000,3,2,Parkway Central,2034,10803,1973,1,130,,http://www.redfin.com/TX/Arlington/2207-Franklin-Dr-76011/home/31887727,NTREIS,32.7693951,-97.1096312
Single Family Residential,2125 Riverforest Dr,Arlington,TX,76017,329000,3,3,Wimbledon North Add,2717,15115,1978,1,121,,http://www.redfin.com/TX/Arlington/2125-Riverforest-Dr-76017/home/32202956,NTREIS,32.6726744,-97.145403
Single Family Residential,8204 SILVERTON Dr,Arlington,TX,76001,370000,4,2.5,SOUTH POINTE ADDITION,3970,8712,2000,1,93,,http://www.redfin.com/TX/Arlington/8204-Silverton-Dr-76001/home/32428828,NTREIS,32.6120355,-97.1308813
Single Family Residential,8114 Loretta Day Dr,Arlington,TX,76002,329900,3,2,Day Add,2035,6360,2019,1,162,44,http://www.redfin.com/TX/Arlington/8114-Loretta-Day-Dr-76002/home/169578121,NTREIS,32.6114003,-97.087199
Single Family Residential,123 Parkview Dr,Arlington,TX,76010,175000,3,2,Parkview Add,1160,13112,1950,1,151,,http://www.redfin.com/TX/Arlington/123-Parkview-Dr-76010/home/31887882,NTREIS,32.7363299,-97.0806662
Single Family Residential,1714 Wild Deer Way,Arlington,TX,76002,309995,4,2.5,Deer Creek Arlington,2929,8538,2010,1,106,39,http://www.redfin.com/TX/Arlington/1714-Wild-Deer-Way-76002/home/31210008,NTREIS,32.6193361,-97.0775359
Single Family Residential,408 Quail Roost Ln,Arlington,TX,76002,349900,4,2.5,Quail Creek Add,3451,13329,2002,1,101,,http://www.redfin.com/TX/Arlington/408-Quail-Roost-Ln-76002/home/32488495,NTREIS,32.6284237,-97.1079703
Single Family Residential,4406 Terraview Dr,Arlington,TX,76001,332990,4,2.5,Highcroft Estates,2536,7318,2021,1,131,67,http://www.redfin.com/TX/Arlington/Terraview-Dr-76001/home/169580700,NTREIS,32.616451,-97.185466
Single Family Residential,7710 Longbow Ln,Arlington,TX,76002,299900,4,2.5,Deer Creek Arlington,2479,8276,2005,1,121,,http://www.redfin.com/TX/Arlington/7710-Longbow-Ln-76002/home/31013468,NTREIS,32.6147895,-97.0867729
Single Family Residential,4408 Terraview Dr,Arlington,TX,76001,314990,3,3,Highcroft Estates,2284,7187,2021,1,138,67,http://www.redfin.com/TX/Arlington/Terraview-Dr-76001/home/169580701,NTREIS,32.616252,-97.185985
Single Family Residential,6428 Fannin Dr,Arlington,TX,76001,379000,5,3.5,Fannin Farm Add,3116,10280,1995,2,122,25,http://www.redfin.com/TX/Arlington/6428-Fannin-Dr-76001/home/32431148,NTREIS,32.6401526,-97.1396816
Single Family Residential,2708 Fox Creek Trl,Arlington,TX,76017,399999,4,3.5,Foxwood Glen,3719,9060,2009,2,108,42,http://www.redfin.com/TX/Arlington/2708-Fox-Creek-Trl-76017/home/31128753,NTREIS,32.6734337,-97.1536494
Single Family Residential,2003 Pennington Dr,Arlington,TX,76014,235000,3,2,Brandyridge,1709,7187,1979,2,138,,http://www.redfin.com/TX/Arlington/2003-Pennington-Dr-76014/home/31416036,NTREIS,32.6876419,-97.0777241
Single Family Residential,817 Bracken Pl,Arlington,TX,76017,263900,4,2.5,Collingwood Village,2020,5532,1989,2,131,,http://www.redfin.com/TX/Arlington/817-Bracken-Pl-76017/home/32344252,NTREIS,32.6512706,-97.1190157
Condo/Co-op,911 Cedarland Blvd,Arlington,TX,76011,229900,2,1,Cedar Place Garden Condminium,927,4138,1983,2,248,187,http://www.redfin.com/TX/Arlington/911-Cedarland-Blvd-76011/home/32332942,NTREIS,32.752628,-97.096593
Single Family Residential,907 Glynn Oaks Dr,Arlington,TX,76010,170000,3,1,Plaza Terrace Add,978,7187,1961,2,174,,http://www.redfin.com/TX/Arlington/907-Glynn-Oaks-Dr-76010/home/31910079,NTREIS,32.712473,-97.0966395
Single Family Residential,2006 Deer Path Dr,Arlington,TX,76012,250000,3,2,Randol Mill Park Estates,1662,8189,1973,2,150,,http://www.redfin.com/TX/Arlington/2006-Deer-Path-Dr-76012/home/31940265,NTREIS,32.752956,-97.141806
Single Family Residential,4205 Trowbridge Dr,Arlington,TX,76013,295000,3,2,Oak Creek Estates,2126,10411,1974,3,139,,http://www.redfin.com/TX/Arlington/4205-Trowbridge-Dr-76013/home/31842104,NTREIS,32.7077075,-97.1743856
Single Family Residential,718 McAdoo Dr,Arlington,TX,76002,421247,4,3.5,Mayfield Farms,3178,6970,2021,3,133,56,http://www.redfin.com/TX/Arlington/Unknown-76002/home/173904841,NTREIS,32.62469,-97.097612
Single Family Residential,11 Mary Lou Ct,Mansfield,TX,76063,359900,4,2,Heritage Estates Add,2386,13591,2001,3,151,,http://www.redfin.com/TX/Mansfield/11-Mary-Lou-Ct-76063/home/32479733,NTREIS,32.5989356,-97.0968497
Condo/Co-op,1105 Calico Ln #1626,Arlington,TX,76011,100000,1,1,Cloisters Condo The,656,1742,1981,3,152,166,http://www.redfin.com/TX/Arlington/1105-Calico-Ln-76011/unit-1626/home/32311039,NTREIS,32.7668208,-97.0926426
Single Family Residential,1605 W Sanford St,Arlington,TX,76012,360000,4,3,West Hills Add,2691,11718,1967,3,134,,http://www.redfin.com/TX/Arlington/1605-W-Sanford-St-76012/home/32182635,NTREIS,32.7432062,-97.1296493
Single Family Residential,5601 Maplewood St,Arlington,TX,76018,249900,3,2,Webb-Britton Estates,1509,10716,1991,3,166,,http://www.redfin.com/TX/Arlington/5601-Maplewood-St-76018/home/32158400,NTREIS,32.6545309,-97.0628945
Single Family Residential,3509 Hill Haven Ln,Arlington,TX,76014,199900,3,2,Hillside Add,1184,6360,1978,5,169,,http://www.redfin.com/TX/Arlington/3509-Hill-Haven-Ln-76014/home/31668722,NTREIS,32.6880185,-97.0943694
Single Family Residential,4200 Meadow Park Dr,Arlington,TX,76017,225000,3,2,Eagles Nest,1461,5271,1984,5,154,,http://www.redfin.com/TX/Arlington/4200-Meadow-Park-Dr-76017/home/32334327,NTREIS,32.666522,-97.1735754
Single Family Residential,1718 Briar Meadow Dr,Arlington,TX,76014,240000,3,2,Briar Meadow Add,1755,7797,1977,5,137,,http://www.redfin.com/TX/Arlington/1718-Briar-Meadow-Dr-76014/home/31419057,NTREIS,32.697183,-97.0836924
Single Family Residential,806 S Emma Dr,Arlington,TX,76002,236000,3,2,Eden Creek Add,1685,7449,1998,5,140,,http://www.redfin.com/TX/Arlington/806-S-Emma-Dr-76002/home/32437358,NTREIS,32.6366525,-97.1003392
Townhouse,4301 Hurricane Creek Trl,Arlington,TX,76005,379900,4,3,Viridian Village,2318,,2018,6,164,228,http://www.redfin.com/TX/ARLINGTON/4301-HURRICANE-CREEK-TRL-76005/home/167719013,NTREIS,32.804905,-97.094081
Single Family Residential,3703 Fort Hunt Dr,Arlington,TX,76016,259000,4,2,Glen Spgs Add,2256,7710,1979,6,115,,http://www.redfin.com/TX/Arlington/3703-Fort-Hunt-Dr-76016/home/31606775,NTREIS,32.6784735,-97.1653475
Single Family Residential,4506 Spanish Indigo Ln,Arlington,TX,76005,379888,3,2.5,Viridian Village 2f,2398,3441,2018,6,158,128,http://www.redfin.com/TX/Arlington/Spanish-Indigo-Ln-76005/home/169578461,NTREIS,32.809471,-97.079169
Single Family Residential,1613 Ida St,Arlington,TX,76010,189000,3,1,Highland Park Add Arlington,1172,8799,1954,6,161,,http://www.redfin.com/TX/Arlington/1613-Ida-St-76010/home/31655502,NTREIS,32.7273709,-97.0862144
Single Family Residential,1504 Waltham Ct,Arlington,TX,76012,335000,4,3,Millbrook #1,2369,8407,1972,6,141,,http://www.redfin.com/TX/Arlington/1504-Waltham-Ct-76012/home/31792025,NTREIS,32.7543942,-97.1546592
Single Family Residential,7905 Desert Rose Ct,Arlington,TX,76002,249900,4,2,Lonesome Dove Estates,1882,5968,2000,6,133,,http://www.redfin.com/TX/Arlington/7905-Desert-Rose-Ct-76002/home/32458542,NTREIS,32.6172764,-97.1097153
Single Family Residential,6103 Tiffany Park Ct,Arlington,TX,76016,749900,4,4,Tiffany Park Add,4430,12981,2001,6,169,,http://www.redfin.com/TX/Arlington/6103-Tiffany-Park-Ct-76016/home/32127243,NTREIS,32.6975189,-97.2033807
Single Family Residential,5410 Summit Ridge Trl,Arlington,TX,76017,310000,4,2.5,Overland Stage Estates,2188,9148,1977,7,142,,http://www.redfin.com/TX/Arlington/5410-Summit-Ridge-Trl-76017/home/31871379,NTREIS,32.671044,-97.191016
Single Family Residential,2702 Spirit Woods Ln,Arlington,TX,76001,489000,6,4.5,Twin Hills Ph 2,4253,11979,2019,7,115,58,http://www.redfin.com/TX/Arlington/2702-Spirit-Woods-Ln-76001/home/167719781,NTREIS,32.6273466,-97.1549608
Single Family Residential,4103 Kingsferry Dr,Arlington,TX,76016,447000,4,3,Shorewood Estates,2927,7231,1992,7,153,,http://www.redfin.com/TX/Arlington/4103-Kingsferry-Dr-76016/home/32050048,NTREIS,32.6837782,-97.2110447
Single Family Residential,1418 Spring Willow Dr,Arlington,TX,76018,178000,3,1,Windmill Meadows Add,1191,5140,1983,7,149,,http://www.redfin.com/TX/Arlington/1418-Spring-Willow-Dr-76018/home/32323634,NTREIS,32.6586896,-97.0849954
Single Family Residential,1411 E Park Row Dr,Arlington,TX,76010,210000,3,2,Sylvan Heights Add,1434,7492,1955,7,146,,http://www.redfin.com/TX/Arlington/1411-E-Park-Row-Dr-76010/home/32117688,NTREIS,32.7211778,-97.0878537
Single Family Residential,3712 Lindsey Ct,Arlington,TX,76015,169900,3,1.5,Rolling Meadows Add,1622,4487,1971,8,105,,http://www.redfin.com/TX/Arlington/3712-Lindsey-Ct-76015/home/31986530,NTREIS,32.6834276,-97.1234666
Single Family Residential,6604 Nantucket Ln,Arlington,TX,76001,425000,4,3,Marthas Vineyard Add,2888,11631,1989,8,147,10,http://www.redfin.com/TX/Arlington/6604-Nantucket-Ln-76001/home/32374328,NTREIS,32.6378327,-97.1542209
Townhouse,,Arlington,TX,76006,185000,2,2.5,Forest Brook Twnhms Add,1204,1394,1993,8,154,135,http://www.redfin.com/TX/Arlington/Undisclosed-address-76006/home/32391267,NTREIS,32.7750023,-97.06635
Single Family Residential,3607 Big Bear Lake Ct,Arlington,TX,76016,315000,4,2.5,Enchanted Lake Estate,2380,9670,1979,8,132,35,http://www.redfin.com/TX/Arlington/3607-Big-Bear-Lake-Ct-76016/home/31554465,NTREIS,32.6835591,-97.2186674
Condo/Co-op,2311 Basil Dr Unit C101,Arlington,TX,76006,105000,2,1,Arlington Oaks Condo,808,2178,1981,9,130,267,http://www.redfin.com/TX/Arlington/2311-Basil-Dr-76006/unit-C101/home/32295936,NTREIS,32.7729607,-97.067925
Single Family Residential,2322 Hilldale Blvd,Arlington,TX,76016,195000,3,2,Lake Arl Highlands Add,1073,9017,1969,9,182,,http://www.redfin.com/TX/Arlington/2322-Hilldale-Blvd-76016/home/31723285,NTREIS,32.7055221,-97.1855296
Single Family Residential,5503 Summit Ridge Trl,Arlington,TX,76017,285000,4,3,Overland Stage Estates,2509,8625,1977,9,114,,http://www.redfin.com/TX/Arlington/5503-Summit-Ridge-Trl-76017/home/31871312,NTREIS,32.6717163,-97.1913601
Single Family Residential,6311 Brookbriar Ct,Arlington,TX,76018,215000,3,2,Brookmeadow Add,1228,7187,1991,10,175,,http://www.redfin.com/TX/Arlington/6311-Brookbriar-Ct-76018/home/32370338,NTREIS,32.6439017,-97.0855418
Single Family Residential,830 Stamford Ave,Arlington,TX,76002,434893,5,3.5,Mayfield Farms,3723,7405,2021,10,117,56,http://www.redfin.com/TX/Arlington/Unknown-76002/home/173904834,NTREIS,32.624685,-97.097719
Vacant Land,2019 Loyd Dr,Arlington,TX,76002,79000,0,,Webb Town Of,,5750,,11,,,http://www.redfin.com/TX/Arlington/2019-Loyd-Dr-76002/home/32159812,NTREIS,32.63359,-97.074938
Single Family Residential,2612 Perkins Rd,Arlington,TX,76016,2599900,4,4,Arlington Shores,6308,44126,1975,11,412,,http://www.redfin.com/TX/Arlington/2612-Perkins-Rd-76016/home/31378750,NTREIS,32.701765,-97.1997596
Single Family Residential,1906 Park Hill Dr,Arlington,TX,76012,489500,4,3,Enchanted Oaks Add,3485,9191,1984,12,140,,http://www.redfin.com/TX/Arlington/1906-Park-Hill-Dr-76012/home/31554308,NTREIS,32.7642264,-97.1397284
Single Family Residential,3512 Quail Ln,Arlington,TX,76016,319900,4,3,Andrews J Add,2148,26484,1964,13,149,,http://www.redfin.com/TX/Arlington/3512-Quail-Ln-76016/home/32300580,NTREIS,32.6902936,-97.1939072
Single Family Residential,6109 Amicable Dr,Arlington,TX,76016,330000,4,2.5,Oak Ridge Estates,2131,9409,1981,13,155,,http://www.redfin.com/TX/Arlington/6109-Amicable-Dr-76016/home/31856278,NTREIS,32.6948677,-97.2021596
Single Family Residential,1505 E Timberview Ln,Arlington,TX,76014,214900,4,2,Arkansas Heights Add,1382,7797,1968,13,155,,http://www.redfin.com/TX/Arlington/1505-E-Timberview-Ln-76014/home/31373159,NTREIS,32.7010672,-97.0879798
Single Family Residential,4420 Terraview Dr,Arlington,TX,76001,327490,3,3,Highcroft Estates,2284,7187,2021,13,143,67,http://www.redfin.com/TX/Arlington/Terraview-Dr-76001/home/169580707,NTREIS,32.616261,-97.186125
Single Family Residential,1925 Rockbrook Dr,Arlington,TX,76006,339000,5,2.5,Wood Creek Add,3367,8015,1979,13,101,,http://www.redfin.com/TX/Arlington/1925-Rockbrook-Dr-76006/home/32210527,NTREIS,32.7670845,-97.0768415
Single Family Residential,2007 Thames Dr,Arlington,TX,76017,475000,5,3.5,Buckingham Estates,3707,8625,1990,15,128,,http://www.redfin.com/TX/Arlington/2007-Thames-Dr-76017/home/31441489,NTREIS,32.6649002,-97.1385037
Single Family Residential,510 Betsy Ross Dr,Arlington,TX,76002,235000,3,2,Colonial Estates,1825,7275,1984,15,129,,http://www.redfin.com/TX/Arlington/510-Betsy-Ross-Dr-76002/home/31489617,NTREIS,32.6409388,-97.1045436
Single Family Residential,4727 Mulberry Hill Ln,Arlington,TX,76005,379990,3,2,Viridian,1900,3877,2020,15,200,327,http://www.redfin.com/TX/ARLINGTON/4727-MULBERRY-HILL-LN-76005/home/173680559,NTREIS,32.794788,-97.078959
Townhouse,4556 Meadow Sage St,Arlington,TX,76005,305590,2,2,Viridian Village 2C,1330,2352,2020,15,230,226,http://www.redfin.com/TX/ARLINGTON/4556-MEADOW-SAGE-ST-76005/home/173906636,NTREIS,32.801855,-97.075725
Townhouse,4554 Meadow Sage St,Arlington,TX,76005,305470,2,2,Viridian Village 2C,1346,2352,2020,15,227,226,http://www.redfin.com/TX/ARLINGTON/4554-MEADOW-SAGE-ST-76005/home/173906635,NTREIS,32.801791,-97.075792
Townhouse,915 Cedarland Blvd,Arlington,TX,76011,195000,2,1,Cedar Place Garden Condminium,927,4138,1983,15,210,247,http://www.redfin.com/TX/Arlington/915-Cedarland-Blvd-76011/home/32332944,NTREIS,32.7526269,-97.096492
Single Family Residential,1303 Anglican Dr,Arlington,TX,76002,250000,4,2.5,Berkeley Square Add,1683,7797,2002,15,149,,http://www.redfin.com/TX/Arlington/1303-Anglican-Dr-76002/home/32487844,NTREIS,32.6252781,-97.089409
Townhouse,4567 Stone Valley Trl,Arlington,TX,76005,335940,2,2,Viridian Village 2C,1569,3790,2020,16,214,226,http://www.redfin.com/TX/Arlington/Stone-Valley-Trl-76040/home/173906625,NTREIS,32.802325,-97.075695
Townhouse,4501 Smokey Quartz Ln,Arlington,TX,76005,341250,3,2.5,Viridian Village 2C,1990,4922,2020,16,171,226,http://www.redfin.com/TX/ARLINGTON/4501-SMOKEY-QUARTZ-LN-76005/home/173906700,NTREIS,32.801187,-97.079948
Single Family Residential,1905 W Nathan Lowe Rd,Arlington,TX,76017,290000,3,2,Turf Club Estates Add,2225,8407,1984,16,130,,http://www.redfin.com/TX/Arlington/1905-W-Nathan-Lowe-Rd-76017/home/32138129,NTREIS,32.6552825,-97.1377465
Single Family Residential,7330 Roaring Spgs,Arlington,TX,76002,374101,3,3,Mayfield Farms,2433,7187,2020,16,154,56,http://www.redfin.com/TX/ARLINGTON/7330-ROARING-SPRINGS-RD-76002/home/173879139,NTREIS,32.624685,-97.097719
Single Family Residential,1211 Ridgewood Ter,Arlington,TX,76012,375000,3,2,Double Y Wooded Estate Add,2919,20560,1960,17,128,,http://www.redfin.com/TX/Arlington/1211-Ridgewood-Ter-76012/home/31519443,NTREIS,32.7534201,-97.1270734
Single Family Residential,7105 Greenspring Dr,Arlington,TX,76016,233000,3,2.5,Woodfield Add,1816,7536,1983,17,128,,http://www.redfin.com/TX/Arlington/7105-Greenspring-Dr-76016/home/32212956,NTREIS,32.6760163,-97.2200573
Single Family Residential,5506 Grantmont Dr,Arlington,TX,76016,243900,3,2,Pineridge Estates,1786,8625,1979,17,137,,http://www.redfin.com/TX/Arlington/5506-Grantmont-Dr-76016/home/31905861,NTREIS,32.687891,-97.1910233
Single Family Residential,2216 Shadydale Dr,Arlington,TX,76012,375000,4,3,Prestonwood Estates Add,2782,17250,1975,21,135,,http://www.redfin.com/TX/Arlington/2216-Shadydale-Dr-76012/home/31919664,NTREIS,32.7723132,-97.1354539
Single Family Residential,2116 Greenway St,Arlington,TX,76010,194900,3,2,Meadowbrook Park Add,1036,7318,1956,22,188,,http://www.redfin.com/TX/Arlington/2116-Greenway-St-76010/home/31771976,NTREIS,32.7279005,-97.0737316
Single Family Residential,7300 Grindstone Ct,Arlington,TX,76002,850000,3,2.5,88,2330,658453,1982,22,365,,http://www.redfin.com/TX/Arlington/7300-Grindstone-Ct-76002/home/40199162,NTREIS,32.6254815,-97.0800198
Single Family Residential,907 Blue Sky Dr,Arlington,TX,76002,260000,3,2.5,Ridge Point Add,2260,7710,2005,23,115,,http://www.redfin.com/TX/Arlington/907-Blue-Sky-Dr-76002/home/31003098,NTREIS,32.6151306,-97.0987307
Single Family Residential,2326 Perkins Rd,Arlington,TX,76016,2645000,5,8.5,Creary J A Add,11616,132335,1991,23,228,,http://www.redfin.com/TX/Arlington/2326-Perkins-Rd-76016/home/32325825,NTREIS,32.7066958,-97.2000117
Single Family Residential,1502 Park Chase Ave,Arlington,TX,76011,275000,3,2.5,Parks At Arbor Chase The,1974,6490,1993,24,139,,http://www.redfin.com/TX/Arlington/1502-Park-Chase-Ave-76011/home/32412728,NTREIS,32.7709378,-97.0870551
Single Family Residential,1310 Paxton Ave,Arlington,TX,76013,197500,3,1,Monticello Additon,1464,9148,1952,24,135,,http://www.redfin.com/TX/Arlington/1310-Paxton-Ave-76013/home/31799221,NTREIS,32.7233832,-97.1224993
Single Family Residential,2619 Cedar View Dr,Arlington,TX,76006,315000,4,2,Estates Of River Ridge The,2358,14113,1994,26,134,10,http://www.redfin.com/TX/Arlington/2619-Cedar-View-Dr-76006/home/32419107,NTREIS,32.7820669,-97.0690459
Single Family Residential,805 Harmon Ter,Arlington,TX,76010,199990,3,2,Phillips Park Add,1490,8451,1953,27,134,,http://www.redfin.com/TX/Arlington/805-Harmon-Ter-76010/home/31903977,NTREIS,32.7193695,-97.0988677
Vacant Land,700 N Center St,Arlington,TX,76013,324990,0,,Sol Davis Addition,,15899,,27,,,http://www.redfin.com/TX/Arlington/700-N-Center-St-76011/home/173970752,NTREIS,32.7447254,-97.1073501
Single Family Residential,2411 Copper Ridge Rd,Arlington,TX,76006,543900,4,3,Forest Hills Add,3674,10062,1983,27,148,98,http://www.redfin.com/TX/Arlington/2411-Copper-Ridge-Rd-76006/home/32316341,NTREIS,32.7881314,-97.0676801
Single Family Residential,3700 Vista Chase Ct,Arlington,TX,76001,425000,4,3.5,Arbor Oaks Estates Add,3114,10803,2002,27,136,29,http://www.redfin.com/TX/Arlington/3700-Vista-Chase-Ct-76001/home/32437446,NTREIS,32.6259105,-97.1664628
Single Family Residential,3710 Hastings Dr,Arlington,TX,76013,255000,4,2,Woodland West Add,1611,10411,1966,28,158,,http://www.redfin.com/TX/Arlington/3710-Hastings-Dr-76013/home/32217080,NTREIS,32.7239339,-97.1659577
Single Family Residential,2103 N Cooper St N,Arlington,TX,76011,500000,3,2,Coonrod,2595,75359,1959,28,193,,http://www.redfin.com/TX/Arlington/2103-N-Cooper-St-76011/home/32348062,NTREIS,32.7681274,-97.1134157
Condo/Co-op,905 Cedarland Blvd,Arlington,TX,76011,214900,2,2,Cedar Place Garden Condminium,1046,4792,1983,28,205,206,http://www.redfin.com/TX/Arlington/905-Cedarland-Blvd-76011/home/32332847,NTREIS,32.75262,-97.096965
Multi-Family (2-4 Unit),2409 Summer Place Dr,Arlington,TX,76014,159000,2,2,Summer Place Twnhms Add,1227,3136,1985,29,130,,http://www.redfin.com/TX/Arlington/2409-Summer-Pl-Dr-76014/home/32352933,NTREIS,32.704258,-97.070897
Single Family Residential,510 Salem Dr,Arlington,TX,76014,214900,4,2,High Meadows Add,1640,8059,1976,30,131,,http://www.redfin.com/TX/Arlington/510-Salem-Dr-76014/home/31659396,NTREIS,32.6942201,-97.1042492
Single Family Residential,1507 Lone Eagle,Arlington,TX,76005,693250,5,4.5,Viridian 65s,3787,8494,2020,31,183,83,http://www.redfin.com/TX/ARLINGTON/1507-LONE-EAGLE-WAY-76005/home/167716779,NTREIS,32.810174,-97.079679
Single Family Residential,7306 Paleon Dr,Arlington,TX,76002,282000,4,2.5,Fossil Lake Add,2616,5184,2003,32,108,,http://www.redfin.com/TX/Arlington/7306-Paleon-Dr-76002/home/30955006,NTREIS,32.6222486,-97.1033663
Condo/Co-op,929 CEDARLAND Blvd,Arlington,TX,76011,194900,2,2,Cedar Place Garden Condominium,927,,1983,33,210,206,http://www.redfin.com/TX/Arlington/929-Cedarland-Blvd-76011/home/32332926,NTREIS,32.752628,-97.096179
Single Family Residential,1821 Park Highland Way,Arlington,TX,76012,499500,5,5,Park Highlands,4094,9540,2016,34,122,56,http://www.redfin.com/TX/Arlington/1821-Park-Highland-Way-76012/home/31168669,NTREIS,32.7784924,-97.1347809
Single Family Residential,1506 Hillcrest Dr,Arlington,TX,76010,239900,3,2,Plaza Heights Add,1439,9583,1957,34,167,,http://www.redfin.com/TX/Arlington/1506-Hillcrest-Dr-76010/home/31908015,NTREIS,32.7200568,-97.0777872
Single Family Residential,1913 Glenhaven St,Arlington,TX,76010,229950,4,2,Meadowbrook Park Add,1477,7057,1958,34,156,,http://www.redfin.com/TX/Arlington/1913-Glenhaven-St-76010/home/31770916,NTREIS,32.7315608,-97.0788589
Condo/Co-op,921 Cedarland Blvd,Arlington,TX,76011,219000,2,2,Cedar Place Garden Condminium,1046,4792,1983,34,209,206,http://www.redfin.com/TX/Arlington/921-Cedarland-Blvd-76011/home/32332950,NTREIS,32.752358,-97.096414
Vacant Land,1605 Wilma Ln,Arlington,TX,76012,425000,0,,A-1057,,130680,1927,35,,,http://www.redfin.com/TX/Arlington/1605-Wilma-Ln-76012/home/32252668,NTREIS,32.7578654,-97.1480324
Single Family Residential,1717 Silver Marten Trl,Arlington,TX,76005,699900,4,4.5,Viridian Village 2b,4254,8015,2020,35,165,83,http://www.redfin.com/TX/ARLINGTON/1717-SILVER-MARTEN-TRL-76005/home/169573384,NTREIS,32.803102,-97.076321
Condo/Co-op,1700 Baird Farm Cir #1302,Arlington,TX,76006,74999,1,1,Oak Creek Condo,420,1568,1984,35,179,250,http://www.redfin.com/TX/Arlington/1700-Baird-Farm-Cir-76006/unit-1302/home/32354660,NTREIS,32.7693992,-97.0845209
Single Family Residential,6324 Brookgate Dr,Arlington,TX,76016,247500,3,2,Shorewood Hills Add,1543,9540,1982,36,160,,http://www.redfin.com/TX/Arlington/6324-Brookgate-Dr-76016/home/32051051,NTREIS,32.6836646,-97.2076758
Single Family Residential,3109 Shadow Dr W,Arlington,TX,76006,1100000,4,4.5,Forest Hills Add,5160,97574,1991,37,213,106,http://www.redfin.com/TX/Arlington/3109-W-Shadow-Dr-76006/home/32369028,NTREIS,32.789929,-97.0696342
Single Family Residential,4422 Terraview Dr,Arlington,TX,76001,353990,4,3,Highcroft Estates,2935,7187,2021,37,121,67,http://www.redfin.com/TX/Arlington/Terraview-Dr-76001/home/169580708,NTREIS,32.616108,-97.18693
Single Family Residential,2611 Oates Ln,Arlington,TX,76006,525000,4,4.5,Hampden Woods Add,4588,21824,1996,38,114,500,http://www.redfin.com/TX/Arlington/2611-Oates-Ln-76006/home/32430096,NTREIS,32.7772809,-97.0780604
Vacant Land,2611 W Pleasant Ridge Rd,Dalworthington Gardens,TX,76016,1750000,0,,Hale J W Survey,,629094,,38,,,http://www.redfin.com/TX/Arlington/2611-W-Pleasant-Ridge-Rd-76016/home/40010386,NTREIS,32.679147,-97.152771
Vacant Land,2000 Sovereign Ct,Arlington,TX,76012,199000,0,,Twelve Oaks Estates Add,,64469,,41,,125,http://www.redfin.com/TX/Arlington/2000-Sovereign-Ct-76012/home/173907210,NTREIS,32.7669085,-97.1449339
Condo/Co-op,1207 Beaconsfield Ln #409,Arlington,TX,76011,375000,4,4.5,Chelsea Park Twnhms,2096,216972,2008,41,179,350,http://www.redfin.com/TX/Arlington/1207-Beaconsfield-Ln-76011/unit-409/home/108479281,NTREIS,32.7551677,-97.0908546
Single Family Residential,815 White Dove Dr,Arlington,TX,76017,329900,4,2.5,South Hampton Add,3001,7754,2001,41,110,,http://www.redfin.com/TX/Arlington/815-White-Dove-Dr-76017/home/32498126,NTREIS,32.6527488,-97.1193451
Single Family Residential,1320 N Isle Cv,Arlington,TX,76005,1064900,4,4.5,Viridian Island,4393,12502,2020,42,242,83,http://www.redfin.com/TX/Arlington/1320-N-Isle-CV-76005/home/173857218,NTREIS,32.79078,-97.077213
Single Family Residential,1807 Silver Marten Trl,Arlington,TX,76005,649900,3,3.5,Viridian Vlg 2b,3037,8015,2020,42,214,83,http://www.redfin.com/TX/ARLINGTON/1807-SILVER-MARTEN-TRL-76005/home/169573371,NTREIS,32.801959,-97.075077
Single Family Residential,1805 Silver Marten Trl,Arlington,TX,76005,719900,4,4.5,Viridian Vlg 2b,4253,8015,2020,42,169,83,http://www.redfin.com/TX/ARLINGTON/1805-SILVER-MARTEN-TRL-76005/home/169573372,NTREIS,32.8025,-97.0753
Single Family Residential,7501 Mcmillian Ct,Arlington,TX,76016,465000,3,3,Lake Park Estate Add,4290,13504,1982,44,108,,http://www.redfin.com/TX/Arlington/7501-McMillian-Ct-76016/home/31732970,NTREIS,32.6713207,-97.2261225
Single Family Residential,1421 S West St,Arlington,TX,76010,294800,4,2.5,Park Row Add,2208,6752,1951,44,134,,http://www.redfin.com/TX/Arlington/1421-S-W-St-76010/home/31884473,NTREIS,32.7216699,-97.1109347
Single Family Residential,809 Mckenzie Pl,Arlington,TX,76018,265000,4,2,Arlington Meadows Add,2016,10498,1992,44,131,,http://www.redfin.com/TX/ARLINGTON/809-MCKENZIE-PL-76018/home/32411330,NTREIS,32.65284,-97.098034
Single Family Residential,3702 Fort Hunt Dr,Arlington,TX,76016,279990,3,2,Glen Spgs Add,1523,8276,1980,44,184,,http://www.redfin.com/TX/Arlington/3702-Fort-Hunt-Dr-76016/home/31606859,NTREIS,32.6780393,-97.1652634
Single Family Residential,1708 Princess Pl,Arlington,TX,76014,197000,3,2,Camelot Court Add,1656,9757,1968,44,119,,http://www.redfin.com/TX/Arlington/1708-Princess-Pl-76014/home/31451852,NTREIS,32.7054999,-97.0841127
Single Family Residential,901 E Lovers Ln,Arlington,TX,76010,165000,3,1.5,Arlington Terrace Add,960,9496,1953,46,172,,http://www.redfin.com/TX/Arlington/901-E-Lovers-Ln-76010/home/31379052,NTREIS,32.7140637,-97.0972281
Single Family Residential,1507 N Fielder Rd,Arlington,TX,76012,492500,5,3,Oak Glen Add,3265,31233,1983,47,151,,http://www.redfin.com/TX/Arlington/1507-N-Fielder-Rd-76012/home/31846075,NTREIS,32.7565129,-97.1313527
Single Family Residential,5505 Cavalry Post Dr,Arlington,TX,76017,359900,5,4,Turf Club Estates Add,3199,7754,1994,50,113,,http://www.redfin.com/TX/Arlington/5505-Cavalry-Post-Dr-76017/home/32345851,NTREIS,32.657034,-97.1393334
Single Family Residential,1825 Spotted Fawn Dr,Arlington,TX,76005,316999,2,2,Viridian Elements 55+,1746,3920,2021,55,182,284,http://www.redfin.com/TX/ARLINGTON/1825-SPOTTED-FAWN-DR-76005/home/169578819,NTREIS,32.798347,-97.088478
Single Family Residential,7325 Mansfield Cardinal Rd,Arlington,TX,76060,650000,4,3,1b & 1b3a,3838,146797,1966,56,169,,http://www.redfin.com/TX/Kennedale/7325-Mansfield-Cardinal-Rd-76060/home/32261305,NTREIS,32.6257605,-97.1940938
Single Family Residential,5110 Melia Dr,Arlington,TX,76001,359000,3,3,Melia Ranch Ph 3,2588,10019,2016,57,139,38,http://www.redfin.com/TX/ARLINGTON/5110-MELIA-DR-76001/home/106225536,NTREIS,32.631329,-97.191214
Single Family Residential,1000 Tanglewood Ln,Arlington,TX,76012,305000,4,3,Tanglewood Add,2190,15290,1969,57,139,,http://www.redfin.com/TX/Arlington/1000-Tanglewood-Ln-76012/home/32120652,NTREIS,32.7480563,-97.1438674
Single Family Residential,3401 Blue Forest Dr,Arlington,TX,76001,359900,4,3,Woodland Spgs Add,2653,10280,1993,57,136,,http://www.redfin.com/TX/Arlington/3401-Blue-Forest-Dr-76001/home/32389862,NTREIS,32.6290672,-97.1627174
Single Family Residential,2506 Southcrest Dr,Arlington,TX,76016,216000,4,2,Rushmoor Add,1780,8407,1978,59,121,,http://www.redfin.com/TX/Arlington/2506-Southcrest-Dr-76016/home/32005621,NTREIS,32.70238,-97.1741015
Townhouse,2401 St Gregory St,Arlington,TX,76013,299500,3,3,Graham Square,2470,4182,1978,61,121,8,http://www.redfin.com/TX/Arlington/2401-St-Gregory-St-76013/home/31612817,NTREIS,32.7290955,-97.1474224
Single Family Residential,2110 Laura Ln,Arlington,TX,76010,300000,4,3.5,Southmoor Add,4127,13416,1968,62,73,,http://www.redfin.com/TX/Arlington/2110-Laura-Ln-76010/home/32076341,NTREIS,32.7084836,-97.1029182
Single Family Residential,1608 Northridge Dr,Arlington,TX,76012,279900,3,2.5,Randol Mill Park Garden Home Sub,2439,3833,1976,62,115,53,http://www.redfin.com/TX/Arlington/1608-Northridge-Dr-76012/home/31942192,NTREIS,32.7582035,-97.14287
Single Family Residential,822 Oakwood Ln,Arlington,TX,76012,215000,3,2,Thompson H D Add,2128,20255,1940,62,101,,http://www.redfin.com/TX/Arlington/822-Oakwood-Ln-76012/home/32127220,NTREIS,32.7476658,-97.1407122
Single Family Residential,2105 Sharpshire Ln,Arlington,TX,76014,179900,3,1,Brittania Gardens,1385,7275,1982,63,130,,http://www.redfin.com/TX/Arlington/2105-Sharpshire-Ln-76014/home/31423539,NTREIS,32.6883787,-97.0747822
Single Family Residential,211 Mill Creek Dr,Arlington,TX,76010,299000,4,3,Mill Creek Estates Add,3429,12720,1967,64,87,,http://www.redfin.com/TX/Arlington/211-Mill-Creek-Dr-76010/home/31794145,NTREIS,32.7132931,-97.1100517
Single Family Residential,706 N Center St,Arlington,TX,76011,374990,3,2.5,"DAVIS, SOL ADDITION",1900,4530,2020,64,197,,http://www.redfin.com/TX/Arlington/706-N-Center-St-76011/home/32242203,NTREIS,32.7451409,-97.10712
Townhouse,704 N Center St,Arlington,TX,76011,414990,3,2.5,"DAVIS, SOL ADDITION",2417,4530,2020,64,172,,http://www.redfin.com/TX/Arlington/704-N-Center-St-76011/home/31179758,NTREIS,32.745144,-97.107421
Single Family Residential,408 N Pecan St,Arlington,TX,76011,399000,3,2.5,"Thomas, WS Heirs Addition",2417,4792,2020,64,165,,http://www.redfin.com/TX/Arlington/408-N-Pecan-St-76011/home/171328439,NTREIS,32.74118,-97.1084144
Single Family Residential,5701 Vandalia Trl,Arlington,TX,76017,245000,4,2,Rolling Acres Add,1907,6098,1996,66,128,,http://www.redfin.com/TX/Arlington/5701-Vandalia-Trl-76017/home/32432673,NTREIS,32.6508533,-97.1968333
Vacant Land,7302 Seclusion Ridge Dr,Arlington,TX,76001,239000,0,,Seclusion Ridge,,53317,,66,,125,http://www.redfin.com/TX/Arlington/7302-Seclusion-Ridge-Dr-76001/home/159416929,NTREIS,32.6258322,-97.1390465
Single Family Residential,1310 Blue Lake Blvd,Arlington,TX,76005,749900,5,4.5,Viridian Village 1d,4200,11151,2020,67,179,82,http://www.redfin.com/TX/ARLINGTON/1310-BLUE-LAKE-BLVD-76005/home/144045603,NTREIS,32.796095,-97.082207
Condo/Co-op,2720 Copper Creek Dr #217,Arlington,TX,76006,115000,1,1,Columbine The A Condo,698,251603,1983,69,165,228,http://www.redfin.com/TX/Arlington/2720-Copper-Creek-Dr-76006/unit-217/home/32328115,NTREIS,32.7824652,-97.1134123
Single Family Residential,7836 Bella Way,Arlington,TX,76001,340990,4,2.5,Highcroft Estates,2565,10019,2021,69,133,67,http://www.redfin.com/TX/Arlington/7836-Bella-Way-76001/home/173637677,NTREIS,32.61618,-97.186415
Single Family Residential,4819 Beaver Creek Dr,Arlington,TX,76005,426296,2,2,Viridian Elements 55+,2044,5532,2020,70,209,284,http://www.redfin.com/TX/Arlington/4819-Beaver-Creek-Dr-76005/home/169578994,NTREIS,32.80966,-97.072842
Single Family Residential,6803 Keeler Dr,Arlington,TX,76001,260000,3,2,Stonebrook Estates Add,1919,6142,1986,71,135,,http://www.redfin.com/TX/Arlington/6803-Keeler-Dr-76001/home/32378347,NTREIS,32.6349824,-97.1189666
Single Family Residential,6210 Wentworth Ct,Arlington,TX,76001,249900,3,2,Paradise,1651,9714,1984,72,151,,http://www.redfin.com/TX/Arlington/6210-Wentworth-Ct-76001/home/32338171,NTREIS,32.6453972,-97.1697875
Townhouse,125 Garden Ct W,Arlington,TX,76010,402645,2,2.5,Main 7 Townhome Addition,1579,,2020,72,255,100,http://www.redfin.com/TX/Arlington/125-Garden-CT-W-76010/home/173622695,NTREIS,32.736195,-97.110892
Multi-Family (2-4 Unit),2500 Hollandale Cir,Arlington,TX,76010,259000,3,4,Hollandale Add,2482,8146,1970,72,104,,http://www.redfin.com/TX/Arlington/2500-Hollandale-Cir-76010/home/31677427,NTREIS,32.7320528,-97.0646967
Townhouse,123 Garden Ct W,Arlington,TX,76010,510370,3,3.5,Main 7 Townhome Addition,2219,,2020,76,230,100,http://www.redfin.com/TX/Arlington/123-Garden-CT-W-76010/home/173583142,NTREIS,32.736602,-97.115601
Single Family Residential,4304 Meadow Hawk Dr,Arlington,TX,76005,417500,3,2.5,Viridian Village 2a,2648,4312,2017,76,158,79,http://www.redfin.com/TX/Arlington/4304-Meadow-Hawk-Dr-76005/home/144043008,NTREIS,32.8058296,-97.0825297
Single Family Residential,2116 River Bend Rd,Arlington,TX,76014,249000,3,2,Briar Meadow Add,1853,14898,1978,78,134,,http://www.redfin.com/TX/Arlington/2116-River-Bend-Rd-76014/home/31419567,NTREIS,32.6930371,-97.0731432
Single Family Residential,2614 Roberts Cir,Arlington,TX,76010,210000,3,2,Hollandale East Add,1682,7013,1959,78,125,,http://www.redfin.com/TX/Arlington/2614-Roberts-Cir-76010/home/32298649,NTREIS,32.7304844,-97.0613772
Single Family Residential,4404 Cypress Thorn Dr,Arlington,TX,76005,381127,2,2,Viridian,1702,4312,2020,85,224,21,http://www.redfin.com/TX/ARLINGTON/4404-CYPRESS-THORN-DR-76005/home/173398736,NTREIS,32.79401,-97.083271
Townhouse,4511 Smokey Quartz Ln,Arlington,TX,76005,302940,2,2.5,Viridian Village 2C,1509,2309,2020,85,201,226,http://www.redfin.com/TX/ARLINGTON/4511-SMOKEY-QUARTZ-LN-76005/home/173486713,NTREIS,32.801558,-97.079943
Townhouse,4509 Smokey Quartz Ln,Arlington,TX,76005,347980,3,2.5,Viridian Village 2C,2006,2875,2020,85,173,226,http://www.redfin.com/TX/ARLINGTON/4509-SMOKEY-QUARTZ-LN-76005/home/173486668,NTREIS,32.801489,-97.079945
Condo/Co-op,2428 Forest Brook Ln #1203,Arlington,TX,76006,118500,2,1,Forestbrook Condo,928,2744,1985,86,128,308,http://www.redfin.com/TX/Arlington/2428-Forest-Brook-Ln-76006/unit-1203/home/32380752,NTREIS,32.7748133,-97.0667678
Single Family Residential,1409 Mount Evans Trl,Arlington,TX,76005,483309,3,2.5,Viridian,2594,6142,2020,86,186,21,http://www.redfin.com/TX/Arlington/1409-Mount-Evans-Trl-76005/home/144043090,NTREIS,32.8068953,-97.0808312
Vacant Land,100 Nemo Ct,Arlington,TX,76010,365000,0,,South Center Street Twnhms,,6098,,87,,,http://www.redfin.com/TX/Arlington/100-Nemo-Ct-76010/home/31164752,NTREIS,32.7277532,-97.1062957
Single Family Residential,3930 Jasmine Fox Ln,Arlington,TX,76005,370000,3,2.5,Viridian Add,2319,4312,2012,88,160,82,http://www.redfin.com/TX/Arlington/3930-Jasmine-Fox-Ln-76005/home/44632656,NTREIS,32.7979217,-97.0915529
Townhouse,1920 Bel Air Dr,Arlington,TX,76010,245000,2,2.5,Abram Estates,1505,2004,2020,89,163,100,http://www.redfin.com/TX/Arlington/1920-Bel-Air-Dr-76010/home/169577382,NTREIS,32.7343339,-97.0786099
Townhouse,1918 Bel Air Dr,Arlington,TX,76010,242500,2,2.5,Abram Estates,1541,1830,2020,89,157,100,http://www.redfin.com/TX/Arlington/1918-Bel-Air-Dr-76010/home/169577381,NTREIS,32.7343339,-97.0786099
Single Family Residential,1916 Bel Air Dr,Arlington,TX,76010,245000,2,2.5,Abram Estates,1481,1830,2020,89,165,100,http://www.redfin.com/TX/Arlington/1916-Bel-Air-Dr-76010/home/169577380,NTREIS,32.7343339,-97.0786099
Single Family Residential,4825 Cypress Thorn Dr,Arlington,TX,76005,460914,3,2,Viridian Elements 55+,2212,6142,2021,94,208,24,http://www.redfin.com/TX/Arlington/4825-Cypress-Thorn-DR-76005/home/173379464,NTREIS,32.80966,-97.072842
Single Family Residential,1922 Bel Air Dr,Arlington,TX,76010,245000,2,2.5,Abram Estates,1544,2004,2020,97,159,100,http://www.redfin.com/TX/Arlington/1922-Bel-Air-Dr-76010/home/169577383,NTREIS,32.7343339,-97.0786099
Vacant Land,1502 W 2nd St,Arlington,TX,76013,799900,0,,Oak Hill Acres,,217800,1924,98,,,http://www.redfin.com/TX/Arlington/1502-W-2nd-St-76013/home/31850351,NTREIS,32.7310426,-97.1282613
Vacant Land,606 Setting Sun Ln,Arlington,TX,76012,75000,0,,Sunset Hills Arlington,,15202,,100,,50,http://www.redfin.com/TX/Arlington/606-Setting-Sun-Ln-76012/home/31090823,NTREIS,32.742318,-97.155465
Single Family Residential,2106 Overbrook Dr,Arlington,TX,76014,215000,4,2,Briar Meadow Add,1953,9191,1978,100,110,,http://www.redfin.com/TX/Arlington/2106-Overbrook-Dr-76014/home/31419535,NTREIS,32.6950068,-97.0740258
Vacant Land,906 Crowley Rd,Arlington,TX,76012,78900,0,,Interlochen Estates Add,,13199,,101,,,http://www.redfin.com/TX/Arlington/906-Crowley-Rd-76012/home/31703102,NTREIS,32.746652,-97.157273
Single Family Residential,814 Stamford Ave,Arlington,TX,76002,339911,4,2,Mayfield Farms,1888,6970,2020,101,180,56,http://www.redfin.com/TX/Arlington/Unknown-76002/home/173904825,NTREIS,32.624685,-97.097719
Single Family Residential,1611 E Lovers Ln,Arlington,TX,76010,225000,3,1.5,Plaza Terrace Addition,1320,9757,1960,105,170,,http://www.redfin.com/TX/Arlington/1611-E-Lovers-Ln-76010/home/31909886,NTREIS,32.7138422,-97.0856259
Single Family Residential,3300 Sheffield Dr,Arlington,TX,76013,299000,4,2,Woodland West Estates Add,2849,11326,1968,107,105,,http://www.redfin.com/TX/Arlington/3300-Sheffield-Dr-76013/home/32219690,NTREIS,32.7307675,-97.1606028
Single Family Residential,312 Pennsylvania Ave,Kennedale,TX,76060,475000,4,3.5,OAKHILL PARK ADDITION,3068,12240,2020,107,155,,http://www.redfin.com/TX/Kennedale/312-Pennsylvania-Ave-76060/home/32493575,NTREIS,32.65966,-97.221832
Single Family Residential,1400 Porto Bello Ct,Arlington,TX,76012,440000,4,3,Interlochen Estates Add,3390,32104,1981,114,130,35,http://www.redfin.com/TX/Arlington/1400-Porto-Bello-Ct-76012/home/31703046,NTREIS,32.7515086,-97.1594771
Single Family Residential,4510 Pleasantview Dr,Arlington,TX,76017,299000,0,1,"JOPLIN, L L SURVEY ABSTRACT 867 TRACT 2A06",456,81893,1973,120,656,,http://www.redfin.com/TX/Arlington/4510-Pleasantview-Dr-76017/home/32247867,NTREIS,32.6715574,-97.1745855
Single Family Residential,4710 Beaver Creek Dr,Arlington,TX,76005,594990,3,3,Viridian Elements,2977,8364,2020,122,200,282,http://www.redfin.com/TX/Arlington/4710-Beaver-Creek-Dr-76005/home/169578892,NTREIS,32.810615,-97.074971
Vacant Land,5403 Yaupon Dr,Arlington,TX,76018,200000,0,,Lacy W D Add,,45869,,126,,,http://www.redfin.com/TX/Arlington/5403-Yaupon-Dr-76018/home/35579963,NTREIS,32.657231,-97.106801
Single Family Residential,1503 Rose Willow Way,Arlington,TX,76005,405845,3,2.5,Viridian,2275,4312,2020,126,178,83,http://www.redfin.com/TX/ARLINGTON/1503-ROSE-WILLOW-WAY-76005/home/173082762,NTREIS,32.79401,-97.083271
Single Family Residential,1625 Rose Willow Way,Arlington,TX,76005,480674,3,2.5,Viridian,2335,4312,2020,126,206,83,http://www.redfin.com/TX/ARLINGTON/1625-ROSE-WILLOW-WAY-76005/home/173082760,NTREIS,32.79401,-97.083271
Single Family Residential,2308 W Lavender Ln,Arlington,TX,76013,260000,3,2,Green Meadows Add,1944,8364,1969,132,134,,http://www.redfin.com/TX/Arlington/2308-W-Lavender-Ln-76013/home/31624691,NTREIS,32.7108599,-97.1456452
Single Family Residential,2202 Prestonwood Dr,Arlington,TX,76012,419900,4,3,Prestonwood Estates Add,2981,30928,1975,133,141,,http://www.redfin.com/TX/Arlington/2202-Prestonwood-Dr-76012/home/31919991,NTREIS,32.7714056,-97.1344444
Condo/Co-op,1205 Calico Ln #2220,Arlington,TX,76011,147900,2,2,Cloisters Condo The,1025,2614,1981,133,144,255,http://www.redfin.com/TX/Arlington/1205-Calico-Ln-76011/unit-2220/home/32310924,NTREIS,32.7668208,-97.0926426
Single Family Residential,3102 Spring Oak Pl,Arlington,TX,76017,329900,4,3.5,Oak Lake Add,3175,5009,1992,139,104,121,http://www.redfin.com/TX/Arlington/3102-Spring-Oak-Pl-76017/home/32362492,NTREIS,32.6680374,-97.1584977
Vacant Land,1201 Viridian Park,Arlington,TX,76005,359900,0,,Viridian Village,,30056,,141,,79,http://www.redfin.com/TX/Arlington/1201-Viridian-Park-Ln-76005/home/52795696,NTREIS,32.794523,-97.0881227
Single Family Residential,4809 Beaver Creek Dr,Arlington,TX,76005,388052,2,2,Viridian Elements 55+,2044,5532,2021,141,190,284,http://www.redfin.com/TX/Arlington/4809-Beaver-Creek-Dr-76005/home/169578990,NTREIS,32.8124534,-97.0761726
Multi-Family (2-4 Unit),2606 Sherry St,Arlington,TX,76014,190000,3,2,Summer Place Twnhms Add,1250,3746,2020,142,152,,http://www.redfin.com/TX/Arlington/2606-Sherry-St-76014/home/32339943,NTREIS,32.7016149,-97.072342
Multi-Family (2-4 Unit),2604 Sherry St,Arlington,TX,76014,190000,3,2,Summer Place Twnhms Add,1250,3093,2020,142,152,,http://www.redfin.com/TX/Arlington/2604-Sherry-St-76014/home/32339942,NTREIS,32.701698,-97.072341
Condo/Co-op,2300 Bamboo Dr Unit N210,Arlington,TX,76006,131000,2,2,Arlington Oaks Condo,1031,2744,1983,144,127,310,http://www.redfin.com/TX/Arlington/2300-Bamboo-Dr-76006/unit-N210/home/32332472,NTREIS,32.7729607,-97.067925
Single Family Residential,1708 Scarborough Dr,Arlington,TX,76001,589900,3,2.5,Seclusion Rdg Add,2900,16074,2020,153,203,0,http://www.redfin.com/TX/Arlington/1708-Scarborough-Dr-76001/home/144042066,NTREIS,32.624722,-97.13775
Single Family Residential,5103 Timber Cove Ct,Arlington,TX,76017,700000,4,4.5,Deerwood Park Add,4858,14985,1988,153,144,20,http://www.redfin.com/TX/Arlington/5103-Timber-Cove-Ct-76017/home/32374754,NTREIS,32.6638646,-97.1478221
Single Family Residential,4421 Blue Holly Blvd,Arlington,TX,76005,500378,3,3,Viridian,2374,7405,2020,154,211,83,http://www.redfin.com/TX/ARLINGTON/4421-BLUE-HOLLY-BLVD-76005/home/167716802,NTREIS,32.807351,-97.075967
Single Family Residential,1612 Rose Willow Way,Arlington,TX,76005,490694,3,3.5,Viridian,2586,6142,2020,154,190,79,http://www.redfin.com/TX/ARLINGTON/1612-ROSE-WILLOW-WAY-76005/home/172664807,NTREIS,32.79401,-97.083271
Single Family Residential,10 HOME Pl,Dalworthington Gardens,TX,76016,1350000,5,7.5,Ashworth Homeplace,10130,70001,1991,166,133,240,http://www.redfin.com/TX/Arlington/10-Home-Pl-Ct-76016/home/32343965,NTREIS,32.6820924,-97.158867
Single Family Residential,3908 Trisha Val Ct,Arlington,TX,76016,899000,4,5,Watson T H Add,3991,104544,1978,172,225,,http://www.redfin.com/TX/Arlington/3908-Trisha-Val-Ct-76016/home/32156858,NTREIS,32.6871728,-97.1701781
Single Family Residential,116 S Joplin Rd,Kennedale,TX,76060,325000,3,2.5,Rayburn L C Sub,1644,84071,1982,174,198,,http://www.redfin.com/TX/Kennedale/116-S-Joplin-Rd-76060/home/31035139,NTREIS,32.6368625,-97.1892341
Single Family Residential,2001 Dancer Dr,Arlington,TX,76013,749000,3,3.5,Woodland Park Estates Add,5400,16117,2005,181,139,,http://www.redfin.com/TX/Arlington/2001-Dancer-Dr-76013/home/32215888,NTREIS,32.7133052,-97.1745434
Single Family Residential,5304 BRADLEY Ln,Arlington,TX,76017,304900,4,2.5,StageCoach Estates Addition,2496,7492,2001,182,122,,http://www.redfin.com/TX/Arlington/5304-Bradley-Ln-76017/home/32381108,NTREIS,32.6565316,-97.1893183
Townhouse,4251 Snow Goose Trl,Arlington,TX,76005,319900,3,2.5,Viridian Ph 1g,2018,3136,2018,183,159,223,http://www.redfin.com/TX/ARLINGTON/4251-SNOW-GOOSE-TRL-76005/home/144046413,NTREIS,32.803165,-97.095033
Condo/Co-op,2312 Balsam Dr Unit A208,Arlington,TX,76006,126500,2,1,Arlington Oaks Condo,931,2483,1980,185,136,308,http://www.redfin.com/TX/Arlington/2312-Balsam-Dr-76006/unit-A208/home/32295859,NTREIS,32.7729607,-97.067925
Single Family Residential,1105 Viridian Park Ln,Arlington,TX,76005,1450000,5,5.5,Viridian Add,5600,26397,2018,189,259,79,http://www.redfin.com/TX/Arlington/1105-Viridian-Park-Ln-76005/home/44637458,NTREIS,32.7954289,-97.090776
Single Family Residential,3308 Sunset Oaks St,Dalworthington Gardens,TX,76016,475000,3,4,Brookside Park Add,2749,14375,1975,200,173,,http://www.redfin.com/TX/Arlington/3308-Sunset-Oaks-St-76016/home/31430803,NTREIS,32.6924876,-97.1597927
Single Family Residential,508 S Fielder Rd,Arlington,TX,76013,699900,4,4.5,Grays Nursery Add,6329,38943,1965,201,111,,http://www.redfin.com/TX/Arlington/508-S-Fielder-Rd-76013/home/31614770,NTREIS,32.731974,-97.1323129
Single Family Residential,1801 Inca Rose Ln,Arlington,TX,76005,732957,4,4,Viridian 65s,3561,10367,2020,204,206,83,http://www.redfin.com/TX/Arlington/Inca-Rose-Ln-76005/home/169573441,NTREIS,32.796195,-97.077671
Single Family Residential,1938 Chieftain Ln,Arlington,TX,76010,262500,3,3,Abram Estates,1825,1350,2019,206,144,100,http://www.redfin.com/TX/Arlington/1938-Chieftain-Ln-76010/home/169577360,NTREIS,32.7347499,-97.0786135
Vacant Land,2329 Stone Bridge Dr,Arlington,TX,76006,115000,0,,Forest Hills Add,,12632,,211,,106,http://www.redfin.com/TX/Arlington/2329-Stone-Bridge-Dr-76006/home/32370641,NTREIS,32.788798,-97.068396
Condo/Co-op,2114 Reflection Bay Dr,Arlington,TX,76013,224200,2,2,Reflection Bay Condo On Lake Arl,1676,3703,1985,223,134,595,http://www.redfin.com/TX/Arlington/2114-Reflection-Bay-Dr-76013/home/32378184,NTREIS,32.7117178,-97.1993863
Single Family Residential,6307 W Poly Webb Rd,Arlington,TX,76016,515000,3,2.5,Shelton Estates Add,3336,17598,2020,236,154,,http://www.redfin.com/TX/Arlington/6307-W-Poly-Webb-Rd-76016/home/32264269,NTREIS,32.6787189,-97.2065833
Vacant Land,2315 W Green Oaks Blvd,Arlington,TX,76016,150000,0,,Shady Oaks Gardens Sub,,11326,,255,,,http://www.redfin.com/TX/Arlington/2315-W-Green-Oaks-Blvd-76016/home/35590109,NTREIS,32.706249,-97.190524
Single Family Residential,4402 Moores Lndg,Arlington,TX,76016,384990,4,2.5,Knott's Landing on Little Road,2571,5663,2020,267,150,58,http://www.redfin.com/TX/Arlington/Moore-s-Lndg-76016/home/113469708,NTREIS,32.701051,-97.176752
Single Family Residential,7006 Riesling Way,Arlington,TX,76001,685000,4,4,Mondavi Estates,3806,10019,2020,283,180,50,http://www.redfin.com/TX/Arlington/7006-Riesling-Way-76001/home/31200569,NTREIS,32.631002,-97.158192
Single Family Residential,7005 Bridlewood Dr,Arlington,TX,76002,274900,3,2,Windtree Ridge Add,1756,6403,1999,324,157,,http://www.redfin.com/TX/Arlington/7005-Bridlewood-Dr-76002/home/32456168,NTREIS,32.630258,-97.1143618
Vacant Land,5705 Forrest Green Ct,Arlington,TX,76016,80000,0,,Forrest Green Add,,7884,,326,,,http://www.redfin.com/TX/Arlington/5705-Forrest-Green-Ct-76016/home/32331435,NTREIS,32.688266,-97.192927
Single Family Residential,1002 Live Oak Ln,Arlington,TX,76012,234900,3,2.5,Oaks The Arlington,3981,19994,1966,372,59,,http://www.redfin.com/TX/Arlington/1002-Live-Oak-Ln-76012/home/32124831,NTREIS,32.7477452,-97.1562371
Single Family Residential,2906 Shadow Dr W,Arlington,TX,76006,2500000,4,6.5,Coleman Madison Add,10076,110947,2003,457,248,,http://www.redfin.com/TX/Arlington/2906-W-Shadow-Dr-76006/home/31485120,NTREIS,32.7859255,-97.0721646
Vacant Land,1800 Ne Green Oaks Blvd,Arlington,TX,76006,1100000,0,,Meridian Add,,189922,,665,,,http://www.redfin.com/TX/Arlington/1800-NE-Green-Oaks-Blvd-76006/home/160717875,NTREIS,32.7765363,-97.083083
Single Family Residential,6315 Millwood Ct,Arlington,TX,76016,440000,4,3,Tiffany Estates,2930,19863,1996,2282,150,,http://www.redfin.com/TX/Arlington/6315-Millwood-Ct-76016/home/32418891,NTREIS,32.6920896,-97.2062019
Single Family Residential,4208 Aspen Grove CT,Arlington,TX,76005,389000,3,2.5,Arlington,2496,,2016,205,156,,http://www.redfin.com/TX/Arlington/4208-Aspen-Grove-CT-76005/home/172242812,Fizber.com,32.7356873,-97.1080627
Single Family Residential,1921 Spotted Fawn Dr,Arlington,TX,76005,317999,2,2,Elements at Viridian,1746,,2021,5,182,,http://www.redfin.com/TX/ARLINGTON/1921-SPOTTED-FAWN-DR-76005/home/169579009,NewHomeSource.com,32.8094,-97.0737
Single Family Residential,1805 Inca Rose Ln,Arlington,TX,76005,529502,4,3.5,Viridian Classics,3521,,2021,6,150,,http://www.redfin.com/TX/Arlington/Inca-Rose-Ln-76005/home/169573439,NewHomeSource.com,32.79401,-97.083271
Single Family Residential,1207 White Squall Trl,Arlington,TX,76005,476716,3,3,Viridian Classics,2374,,2021,8,201,,http://www.redfin.com/TX/Arlington/1207-White-Squall-Trl-76005/home/144042877,NewHomeSource.com,32.806582,-97.0850177
Single Family Residential,1501 Rose Willow Way,Arlington,TX,76005,394787,3,2.5,Viridian Cottage,1972,,2020,14,200,,http://www.redfin.com/TX/ARLINGTON/1501-ROSE-WILLOW-WAY-76005/home/173906775,NewHomeSource.com,32.79401,-97.083271
Single Family Residential,1421 Laurel Green Ct,Arlington,TX,76005,774990,4,4,Viridian - 65',3800,,2020,26,204,,http://www.redfin.com/TX/Arlington/1421-Laurel-Green-CT-76005/home/173963951,NewHomeSource.com,32.735594,-97.10711
Single Family Residential,1320 Isle Cove Dr,Arlington,TX,76005,1064990,4,4.5,Viridian - 75',4393,,2020,26,242,,http://www.redfin.com/TX/Arlington/1320-Isle-Cove-DR-76005/home/173430155,NewHomeSource.com,32.795726,-97.092054
Single Family Residential,1919 Spotted Fawn Dr,Arlington,TX,76005,322999,3,2,Elements at Viridian,1828,,2020,33,177,,http://www.redfin.com/TX/ARLINGTON/1919-SPOTTED-FAWN-DR-76005/home/169579008,NewHomeSource.com,32.8094,-97.0737
Single Family Residential,1508 Rose Willow Way,Arlington,TX,76005,408922,3,2.5,Viridian Cottage,2084,,2020,36,196,,http://www.redfin.com/TX/ARLINGTON/1508-ROSE-WILLOW-WAY-76005/home/173906709,NewHomeSource.com,32.79401,-97.083271
Single Family Residential,1911 Spotted Fawn Dr,Arlington,TX,76005,316999,2,2,Elements at Viridian,1746,,2020,40,182,,http://www.redfin.com/TX/ARLINGTON/1911-SPOTTED-FAWN-DR-76005/home/169579005,NewHomeSource.com,32.8094,-97.0737
Single Family Residential,1823 Spotted Fawn Dr,Arlington,TX,76005,323999,3,2,Elements at Viridian,1828,,2020,49,177,,http://www.redfin.com/TX/ARLINGTON/1823-SPOTTED-FAWN-DR-76005/home/169578821,NewHomeSource.com,32.8094,-97.0737
Single Family Residential,1319 Isle Cove Dr,Arlington,TX,76005,785810,4,3.5,Viridian Island 70' Homesites,4143,,2020,50,190,,http://www.redfin.com/TX/Arlington/1319-Isle-Cove-DR-76005/home/173791780,NewHomeSource.com,32.795238,-97.078523
Single Family Residential,1410 Laurel Green Ct,Arlington,TX,76005,768006,5,4.5,Viridian Island 70' Homesites,4030,,2020,50,191,,http://www.redfin.com/TX/Arlington/1410-Laurel-Green-CT-76005/home/173791777,NewHomeSource.com,32.795238,-97.078523
Single Family Residential,505 William Ct,Arlington,TX,76002,335900,3,2,Will's Place,1842,,2020,51,182,,http://www.redfin.com/TX/Arlington/Unknown-76002/home/173907407,NewHomeSource.com,32.635611,-97.102391
Single Family Residential,516 William Ct,Arlington,TX,76002,411900,4,2.5,Will's Place,3048,,2020,51,135,,http://www.redfin.com/TX/Arlington/Unknown-76002/home/173907415,NewHomeSource.com,32.635611,-97.102391
Single Family Residential,4836 Forest Crest Pkwy,Arlington,TX,76005,327999,2,2.5,Elements at Viridian,1806,,2020,52,182,,http://www.redfin.com/TX/ARLINGTON/4836-FOREST-CREST-PKWY-76005/home/169579021,NewHomeSource.com,32.8094,-97.0737
Single Family Residential,4723 Mulberry Hill Ln,Arlington,TX,76005,418990,3,2.5,Viridian,2432,,2020,64,172,,http://www.redfin.com/TX/ARLINGTON/4723-MULBERRY-HILL-LN-76005/home/173680558,NewHomeSource.com,32.794788,-97.078959
Single Family Residential,1812 Spotted Fawn Dr,Arlington,TX,76005,421377,2,2,Elements at Viridian - Signature Series,2077,,2020,77,203,,http://www.redfin.com/TX/ARLINGTON/1812-SPOTTED-FAWN-DR-76005/home/169578860,NewHomeSource.com,32.80966,-97.072842
Single Family Residential,1803 Spotted Fawn Dr,Arlington,TX,76005,639990,3,3.5,Viridian - Elements,3079,,2020,83,208,,http://www.redfin.com/TX/ARLINGTON/1803-SPOTTED-FAWN-DR-76005/home/169578830,NewHomeSource.com,32.798636,-97.098524
Single Family Residential,525 William Ct,Arlington,TX,76002,409900,4,3.5,Will's Place,3501,,2020,85,117,,http://www.redfin.com/TX/Arlington/Unknown-76002/home/173907398,NewHomeSource.com,32.635611,-97.102391
Single Family Residential,1432 Evert Ct,Arlington,TX,76002,416900,3,2.5,Lynn Creek,2616,,2020,97,159,,http://www.redfin.com/TX/Arlington/1432-Evert-CT-76002/home/173388709,NewHomeSource.com,32.6339,-97.0894
Single Family Residential,692 Harris Rdg,Arlington,TX,76002,335900,3,2,Edgefield,1768,,2020,99,190,,http://www.redfin.com/TX/Azle/692-Harris-Rd-76020/home/167714853,NewHomeSource.com,32.604248,-97.089887
Single Family Residential,4718 Beaver Creek Dr,Arlington,TX,76005,589990,3,2.5,Viridian - Elements,2855,,2020,113,207,,http://www.redfin.com/TX/Arlington/4718-Beaver-Creek-Dr-76005/home/169578889,NewHomeSource.com,32.8107,-97.0749
Single Family Residential,9307 Acre Meadows Ln,Arlington,TX,76002,371499,4,2.5,Southwind Meadows,2230,,2020,129,167,,http://www.redfin.com/TX/Arlington/9307-Acre-Meadows-Ln-76002/home/167716260,NewHomeSource.com,32.597869,-97.078642
Single Family Residential,7307 Ralls Ln,Arlington,TX,76002,349900,4,2,Mayfield Farms,2168,,2020,146,161,,http://www.redfin.com/TX/Arlington/Unknown-76002/home/173904866,NewHomeSource.com,32.627165,-97.100941
Single Family Residential,4832 Forest Crest Pkwy,Arlington,TX,76005,329999,2,2.5,Elements at Viridian,1806,,2020,152,183,,http://www.redfin.com/TX/ARLINGTON/4832-FOREST-CREST-PKWY-76005/home/169579023,NewHomeSource.com,32.8094,-97.0737
Single Family Residential,Mahogany,Arlington,TX,76001,343990,3,3,Mayfield Farms 65s,2307,,,,149,,http://www.redfin.com/TX/Arlington/Mayfield-Farms-65s/Mahogany/home/170461100,NewHomeSource.com,32.6282833,-97.1547052
Single Family Residential,Washington,Arlington,TX,76001,340990,3,2.5,Mayfield Farms 65s,2242,,,,152,,http://www.redfin.com/TX/Arlington/Mayfield-Farms-65s/Washington/home/171557498,NewHomeSource.com,32.6282833,-97.1547052
Single Family Residential,Lexington,Arlington,TX,76002,403900,3,2,Lynn Creek,2589,,,,156,,http://www.redfin.com/TX/Arlington/Lynn-Creek/Lexington/home/170031015,NewHomeSource.com,32.6339,-97.0894
Single Family Residential,Alder,Arlington,TX,76001,370990,3,2.5,Mayfield Farms 65s,3173,,,,117,,http://www.redfin.com/TX/Arlington/Mayfield-Farms-65s/Alder/home/170461101,NewHomeSource.com,32.6282833,-97.1547052
Single Family Residential,Colby,Arlington,TX,76002,376900,3,2,Lynn Creek,2088,,,,181,,http://www.redfin.com/TX/Arlington/Lynn-Creek/Colby/home/170031016,NewHomeSource.com,32.6339,-97.0894
Single Family Residential,Azure,Arlington,TX,76002,409499,4,3.5,Southwind Meadows,2869,,,,143,,http://www.redfin.com/TX/Arlington/Southwind-Meadows/Azure/home/161063478,NewHomeSource.com,32.599,-97.0787
Single Family Residential,Adams,Arlington,TX,76001,345990,3,2,Mayfield Farms 65s,2382,,,,145,,http://www.redfin.com/TX/Arlington/Mayfield-Farms-65s/Adams/home/170461102,NewHomeSource.com,32.6282833,-97.1547052
Single Family Residential,Chessel JS,Arlington,TX,76002,439900,4,3.5,Lynn Creek,3215,,,,137,,http://www.redfin.com/TX/Arlington/Lynn-Creek/Chessel-JS/home/170031017,NewHomeSource.com,32.6339,-97.0894
Single Family Residential,Emory,Arlington,TX,76001,313990,3,2,Mayfield Farms 65s,1888,,,,166,,http://www.redfin.com/TX/Arlington/Mayfield-Farms-65s/Emory/home/170461103,NewHomeSource.com,32.6282833,-97.1547052
Single Family Residential,Sequoia,Arlington,TX,76001,352990,4,3,Mayfield Farms 65s,2543,,,,139,,http://www.redfin.com/TX/Arlington/Mayfield-Farms-65s/Sequoia/home/170461104,NewHomeSource.com,32.6282833,-97.1547052
Single Family Residential,Cedarwood II,Arlington,TX,76002,429900,4,3,Lynn Creek,2981,,,,144,,http://www.redfin.com/TX/Arlington/Lynn-Creek/Cedarwood-II/home/170031019,NewHomeSource.com,32.6339,-97.0894
Single Family Residential,Artistry Series - Orwell,Arlington,TX,76005,383990,3,2.5,Viridian,2400,,,,160,,http://www.redfin.com/TX/Arlington/Viridian/Artistry-Series-Orwell/home/172648067,NewHomeSource.com,32.794788,-97.078959
Single Family Residential,Ironwood,Arlington,TX,76001,361990,4,3,Mayfield Farms 65s,2772,,,,131,,http://www.redfin.com/TX/Arlington/Mayfield-Farms-65s/Ironwood/home/170461105,NewHomeSource.com,32.6282833,-97.1547052
Single Family Residential,Monte Carlo,Arlington,TX,76002,455900,4,3.5,Lynn Creek,3823,,,,119,,http://www.redfin.com/TX/Arlington/Lynn-Creek/Monte-Carlo/home/170031020,NewHomeSource.com,32.6339,-97.0894
Single Family Residential,Plan 304,Arlington,TX,76005,418990,3,2.5,Viridian: 40ft. lots,2328,,,,180,,http://www.redfin.com/TX/Arlington/Viridian-40ft-lots/Plan-304/home/169872788,NewHomeSource.com,32.795013,-97.078578
Single Family Residential,Plan 302,Arlington,TX,76005,386990,3,2,Viridian: 40ft. lots,1870,,,,207,,http://www.redfin.com/TX/Arlington/Viridian-40ft-lots/Plan-302/home/169872787,NewHomeSource.com,32.795013,-97.078578
Single Family Residential,Artistry Series - Hemingway,Arlington,TX,76005,378990,3,2.5,Viridian,2340,,,,162,,http://www.redfin.com/TX/Arlington/Viridian/Artistry-Series-Hemingway/home/172648068,NewHomeSource.com,32.794788,-97.078959
Single Family Residential,Augustine,Arlington,TX,76005,449990,4,3,Viridian Chalet Series,2889,,,,156,,http://www.redfin.com/TX/Arlington/Viridian-Chalet-Series/Augustine/home/169966731,NewHomeSource.com,32.795238,-97.078523
Single Family Residential,Jefferson,Arlington,TX,76001,352990,3,2.5,Mayfield Farms 65s,2576,,,,137,,http://www.redfin.com/TX/Arlington/Mayfield-Farms-65s/Jefferson/home/171557499,NewHomeSource.com,32.6282833,-97.1547052
Single Family Residential,Trinity JS,Arlington,TX,76002,344900,3,2,Mayfield Farms,2298,,,,150,,http://www.redfin.com/TX/Arlington/Mayfield-Farms/Trinity-JS/home/173082771,NewHomeSource.com,32.627165,-97.100941
Single Family Residential,Artistry Series - Dickens,Arlington,TX,76005,351990,3,2,Viridian,1900,,,,185,,http://www.redfin.com/TX/Arlington/Viridian/Artistry-Series-Dickens/home/172648069,NewHomeSource.com,32.794788,-97.078959
Single Family Residential,Anna,Arlington,TX,76005,438990,4,3,Viridian Chalet Series,2762,,,,159,,http://www.redfin.com/TX/Arlington/Viridian-Chalet-Series/Anna/home/169966729,NewHomeSource.com,32.795238,-97.078523
Single Family Residential,Walnut,Arlington,TX,76001,354990,3,3,Mayfield Farms 65s,2644,,,,134,,http://www.redfin.com/TX/Arlington/Mayfield-Farms-65s/Walnut/home/170461107,NewHomeSource.com,32.6282833,-97.1547052
Single Family Residential,Remington JS,Arlington,TX,76002,409900,4,3.5,Mayfield Farms,3475,,,,118,,http://www.redfin.com/TX/Arlington/Mayfield-Farms/Remington-JS/home/173082772,NewHomeSource.com,32.627165,-97.100941
Single Family Residential,Artistry Series - Carroll,Arlington,TX,76005,348990,3,2,Viridian,1860,,,,188,,http://www.redfin.com/TX/Arlington/Viridian/Artistry-Series-Carroll/home/172648070,NewHomeSource.com,32.794788,-97.078959
Single Family Residential,Celestial,Arlington,TX,76005,442990,4,3,Viridian Chalet Series,2754,,,,161,,http://www.redfin.com/TX/Arlington/Viridian-Chalet-Series/Celestial/home/169966733,NewHomeSource.com,32.795238,-97.078523
Single Family Residential,Buckeye,Arlington,TX,76001,345990,3,3,Mayfield Farms 65s,2425,,,,143,,http://www.redfin.com/TX/Arlington/Mayfield-Farms-65s/Buckeye/home/170461108,NewHomeSource.com,32.6282833,-97.1547052
Single Family Residential,Chessel JS,Arlington,TX,76002,438900,4,3.5,Mayfield Farms,3215,,,,137,,http://www.redfin.com/TX/Arlington/Mayfield-Farms/Chessel-JS/home/173082773,NewHomeSource.com,32.627165,-97.100941
Single Family Residential,Kensington,Arlington,TX,76005,437990,3,2.5,Viridian Executive,2445,,,,179,,http://www.redfin.com/TX/Arlington/Viridian-Executive/Kensington/home/169873414,NewHomeSource.com,32.79401,-97.083271
Single Family Residential,Bellaire,Arlington,TX,76005,436990,3,2.5,Viridian Chalet Series,2677,,,,163,,http://www.redfin.com/TX/Arlington/Viridian-Chalet-Series/Bellaire/home/169966730,NewHomeSource.com,32.795238,-97.078523
Single Family Residential,Sommerset,Arlington,TX,76002,320900,3,2,Will's Place,1842,,,,174,,http://www.redfin.com/TX/Arlington/Will-s-Place/Sommerset/home/173082774,NewHomeSource.com,32.635611,-97.102391
Single Family Residential,Shoal,Arlington,TX,76005,427990,3,2.5,Viridian Chalet Series,2360,,,,181,,http://www.redfin.com/TX/Arlington/Viridian-Chalet-Series/Shoal/home/169873961,NewHomeSource.com,32.795238,-97.078523
Single Family Residential,Cambium,Arlington,TX,76005,398990,3,2.5,Viridian Chalet Series,1994,,,,200,,http://www.redfin.com/TX/Arlington/Viridian-Chalet-Series/Cambium/home/169966734,NewHomeSource.com,32.795238,-97.078523
Single Family Residential,Cassidy,Arlington,TX,76005,401990,3,2,Viridian Executive,2003,,,,201,,http://www.redfin.com/TX/Arlington/Viridian-Executive/Cassidy/home/169873417,NewHomeSource.com,32.79401,-97.083271
Single Family Residential,Roseville,Arlington,TX,76005,429990,3,2.5,Elements at Viridian - Traditional Series,2917,,,,147,,http://www.redfin.com/TX/Euless/Elements-at-Viridian-Traditional-Series/Roseville/home/172410441,NewHomeSource.com,32.80966,-97.072842
Single Family Residential,Iredell,Arlington,TX,76005,386990,3,2,Viridian Chalet Series,1805,,,,214,,http://www.redfin.com/TX/Arlington/Viridian-Chalet-Series/Iredell/home/169966735,NewHomeSource.com,32.795238,-97.078523
Single Family Residential,Stratford,Arlington,TX,76005,505990,4,4.5,Viridian Executive Series,3200,,,,158,,http://www.redfin.com/TX/Arlington/Viridian-Executive-Series/Stratford/home/169873934,NewHomeSource.com,32.795238,-97.078523
Single Family Residential,Kaufman,Arlington,TX,76005,381990,3,2.5,Viridian Cottage,2419,,,,158,,http://www.redfin.com/TX/Arlington/Viridian-Cottage/Kaufman/home/169894469,NewHomeSource.com,32.79401,-97.083271
Single Family Residential,Everman,Arlington,TX,76005,443990,3,2.5,Viridian Executive,2586,,,,172,,http://www.redfin.com/TX/Arlington/Viridian-Executive/Everman/home/169873415,NewHomeSource.com,32.79401,-97.083271
Single Family Residential,Monticello,Arlington,TX,76005,497990,4,3.5,Viridian Executive Series,3158,,,,158,,http://www.redfin.com/TX/Arlington/Viridian-Executive-Series/Monticello/home/169966684,NewHomeSource.com,32.795238,-97.078523
Single Family Residential,Grayton,Arlington,TX,76005,373990,4,2.5,Viridian Cottage,2245,,,,167,,http://www.redfin.com/TX/Arlington/Viridian-Cottage/Grayton/home/169873419,NewHomeSource.com,32.79401,-97.083271
Single Family Residential,Charlotte,Arlington,TX,76005,475990,4,3,Viridian Executive Series,2781,,,,171,,http://www.redfin.com/TX/Arlington/Viridian-Executive-Series/Charlotte/home/169966682,NewHomeSource.com,32.795238,-97.078523
Single Family Residential,Plan 242,Arlington,TX,76005,577990,4,3,Viridian: 60ft. lots,2993,,,,193,,http://www.redfin.com/TX/Arlington/Viridian-60ft-lots/Plan-242/home/169931374,NewHomeSource.com,32.796195,-97.077671
Single Family Residential,Plan 248H,Arlington,TX,76005,622990,4,3,Viridian: 60ft. lots,3565,,,,175,,http://www.redfin.com/TX/Arlington/Viridian-60ft-lots/Plan-248H/home/169872870,NewHomeSource.com,32.796195,-97.077671
Single Family Residential,Brayden,Arlington,TX,76005,675900,4,4,Viridian - 65',4027,,,,168,,http://www.redfin.com/TX/Arlington/Viridian-65/Brayden/home/169871069,NewHomeSource.com,32.795726,-97.092054
Single Family Residential,Cambria II,Arlington,TX,76005,628900,4,4.5,Viridian - 65',3972,,,,158,,http://www.redfin.com/TX/Arlington/Viridian-65/Cambria-II/home/169961897,NewHomeSource.com,32.795726,-97.092054
Single Family Residential,Corona,Arlington,TX,76005,597900,3,3.5,Viridian - 65',4260,,,,140,,http://www.redfin.com/TX/Arlington/Viridian-65/Corona/home/169871067,NewHomeSource.com,32.795726,-97.092054
Single Family Residential,Marbella,Arlington,TX,76005,554900,3,3,Viridian - 65',2541,,,,218,,http://www.redfin.com/TX/Arlington/Viridian-65/Marbella/home/169961895,NewHomeSource.com,32.795726,-97.092054
Single Family Residential,Seneca II,Arlington,TX,76005,616900,4,4,Viridian - 65',3566,,,,173,,http://www.redfin.com/TX/Arlington/Viridian-65/Seneca-II/home/169871071,NewHomeSource.com,32.795726,-97.092054
Single Family Residential,Valencia II,Arlington,TX,76005,578900,3,3,Viridian - 65',2991,,,,194,,http://www.redfin.com/TX/Arlington/Viridian-65/Valencia-II/home/169871068,NewHomeSource.com,32.795726,-97.092054
Single Family Residential,Violet,Arlington,TX,76005,590900,4,4,Viridian - 65',3406,,,,173,,http://www.redfin.com/TX/Arlington/Viridian-65/Violet/home/169961889,NewHomeSource.com,32.795726,-97.092054
Single Family Residential,Bracken III,Arlington,TX,76005,695900,4,4,Viridian - 75',4108,,,,169,,http://www.redfin.com/TX/Arlington/Viridian-75/Bracken-III/home/169961899,NewHomeSource.com,32.795726,-97.092054
Single Family Residential,Brinkley,Arlington,TX,76005,751900,4,4.5,Viridian - 75',4210,,,,179,,http://www.redfin.com/TX/Arlington/Viridian-75/Brinkley/home/169961898,NewHomeSource.com,32.795726,-97.092054
Single Family Residential,Grantley,Arlington,TX,76005,716900,4,4.5,Viridian - 75',4896,,,,146,,http://www.redfin.com/TX/Arlington/Viridian-75/Grantley/home/169961891,NewHomeSource.com,32.795726,-97.092054
Single Family Residential,Kentshire,Arlington,TX,76005,642900,3,3,Viridian - 75',2867,,,,224,,http://www.redfin.com/TX/Arlington/Viridian-75/Kentshire/home/169961890,NewHomeSource.com,32.795726,-97.092054
Single Family Residential,Lorenzo III,Arlington,TX,76005,610900,3,3,Viridian - 75',2687,,,,227,,http://www.redfin.com/TX/Arlington/Viridian-75/Lorenzo-III/home/169961896,NewHomeSource.com,32.795726,-97.092054
Single Family Residential,Oakley II,Arlington,TX,76005,721900,5,4.5,Viridian - 75',4302,,,,168,,http://www.redfin.com/TX/Arlington/Viridian-75/Oakley-II/home/169961893,NewHomeSource.com,32.795726,-97.092054
Single Family Residential,Cottonwood,Arlington,TX,76005,485990,3,3.5,Viridian Executive Series,2736,,,,178,,http://www.redfin.com/TX/Arlington/Viridian-Executive-Series/Cottonwood/home/169879737,NewHomeSource.com,32.795238,-97.078523
Single Family Residential,Plan 247H,Arlington,TX,76005,614990,4,3,Viridian: 60ft. lots,3449,,,,178,,http://www.redfin.com/TX/Arlington/Viridian-60ft-lots/Plan-247H/home/169920559,NewHomeSource.com,32.796195,-97.077671
Single Family Residential,London,Arlington,TX,76005,455990,3,2.5,Viridian Executive Series,2527,,,,180,,http://www.redfin.com/TX/Arlington/Viridian-Executive-Series/London/home/169966685,NewHomeSource.com,32.795238,-97.078523
Single Family Residential,Boxwood,Arlington,TX,76001,391990,5,4.5,Mayfield Farms 60s,3723,,,,105,,http://www.redfin.com/TX/Arlington/Mayfield-Farms-60s/Boxwood/home/171557495,NewHomeSource.com,32.6282833,-97.1547052
Single Family Residential,Plan 303,Arlington,TX,76005,415990,3,2.5,Viridian: 40ft. lots,2227,,,,187,,http://www.redfin.com/TX/Arlington/Viridian-40ft-lots/Plan-303/home/169931356,NewHomeSource.com,32.795013,-97.078578
Single Family Residential,Eagle Lake,Arlington,TX,76005,441990,4,2.5,Viridian Executive Series,2302,,,,192,,http://www.redfin.com/TX/Arlington/Viridian-Executive-Series/Eagle-Lake/home/169894780,NewHomeSource.com,32.795238,-97.078523
Single Family Residential,Hemlock,Arlington,TX,76001,365990,3,2.5,Mayfield Farms 60s,2795,,,,131,,http://www.redfin.com/TX/Arlington/Mayfield-Farms-60s/Hemlock/home/171557496,NewHomeSource.com,32.6282833,-97.1547052
Single Family Residential,Murray,Arlington,TX,76002,390900,4,2.5,Mayfield Farms,3048,,,,128,,http://www.redfin.com/TX/Arlington/Mayfield-Farms/Murray/home/171983205,NewHomeSource.com,32.627165,-97.100941
Single Family Residential,Donna,Arlington,TX,76005,435990,3,3,Viridian Executive Series,2187,,,,199,,http://www.redfin.com/TX/Arlington/Viridian-Executive-Series/Donna/home/169966686,NewHomeSource.com,32.795238,-97.078523
Single Family Residential,Axlewood,Arlington,TX,76001,381990,4,3.5,Mayfield Farms 60s,3481,,,,110,,http://www.redfin.com/TX/Arlington/Mayfield-Farms-60s/Axlewood/home/171557497,NewHomeSource.com,32.6282833,-97.1547052
Single Family Residential,Monterey,Arlington,TX,76002,311900,3,2,Will's Place,1757,,,,178,,http://www.redfin.com/TX/Arlington/Will-s-Place/Monterey/home/172635506,NewHomeSource.com,32.635611,-97.102391
Single Family Residential,Brookstone I,Arlington,TX,76002,336900,3,2,Mayfield Farms,2163,,,,156,,http://www.redfin.com/TX/Arlington/Mayfield-Farms/Brookstone-I/home/171983206,NewHomeSource.com,32.627165,-97.100941
Single Family Residential,Plan 310,Arlington,TX,76005,431990,4,3,Viridian: 40ft. lots,2575,,,,168,,http://www.redfin.com/TX/Arlington/Viridian-40ft-lots/Plan-310/home/169911577,NewHomeSource.com,32.795013,-97.078578
Single Family Residential,Taylor,Arlington,TX,76005,421990,3,2.5,Viridian Executive Series,2070,,,,204,,http://www.redfin.com/TX/Arlington/Viridian-Executive-Series/Taylor/home/169966683,NewHomeSource.com,32.795238,-97.078523
Single Family Residential,Hawthorn,Arlington,TX,76001,364990,4,3,Mayfield Farms 60s,2888,,,,126,,http://www.redfin.com/TX/Arlington/Mayfield-Farms-60s/Hawthorn/home/170461091,NewHomeSource.com,32.6282833,-97.1547052
Single Family Residential,Brimstone,Arlington,TX,76002,333900,3,2,Mayfield Farms,2061,,,,162,,http://www.redfin.com/TX/Arlington/Mayfield-Farms/Brimstone/home/171983207,NewHomeSource.com,32.627165,-97.100941
Single Family Residential,Plan 200,Arlington,TX,76005,576990,4,3,Viridian: 60ft. lots,2976,,,,194,,http://www.redfin.com/TX/Arlington/Viridian-60ft-lots/Plan-200/home/169902433,NewHomeSource.com,32.796195,-97.077671
Single Family Residential,Monroe,Arlington,TX,76001,361990,3,2,Mayfield Farms 60s,2726,,,,133,,http://www.redfin.com/TX/Arlington/Mayfield-Farms-60s/Monroe/home/170461094,NewHomeSource.com,32.6282833,-97.1547052
Single Family Residential,Murray,Arlington,TX,76002,378900,4,2.5,Edgefield,3048,,,,124,,http://www.redfin.com/TX/Arlington/Edgefield/Murray/home/170031086,NewHomeSource.com,32.607707,-97.091635
Single Family Residential,Silverstone,Arlington,TX,76002,424900,3,2.5,Lynn Creek,3290,,,,129,,http://www.redfin.com/TX/Arlington/Lynn-Creek/Silverstone/home/170184336,NewHomeSource.com,32.6339,-97.0894
Single Family Residential,Ashstone,Arlington,TX,76002,335900,3,2,Mayfield Farms,2134,,,,157,,http://www.redfin.com/TX/Arlington/Mayfield-Farms/Ashstone/home/171983208,NewHomeSource.com,32.627165,-97.100941
Single Family Residential,Gallagher,Arlington,TX,76005,475990,5,3,Viridian Executive,3238,,,,147,,http://www.redfin.com/TX/Arlington/Viridian-Executive/Gallagher/home/169873413,NewHomeSource.com,32.79401,-97.083271
Single Family Residential,Cypress,Arlington,TX,76001,367990,4,2.5,Mayfield Farms 60s,3052,,,,121,,http://www.redfin.com/TX/Arlington/Mayfield-Farms-60s/Cypress/home/170461095,NewHomeSource.com,32.6282833,-97.1547052
Single Family Residential,Candleberry,Arlington,TX,76001,390990,4,3.5,Mayfield Farms 70s,3482,,,,112,,http://www.redfin.com/TX/Arlington/Mayfield-Farms-70s/Candleberry/home/170461099,NewHomeSource.com,32.6282833,-97.1547052
Single Family Residential,Almond,Arlington,TX,76001,387990,5,3.5,Mayfield Farms 70s,3215,,,,121,,http://www.redfin.com/TX/Arlington/Mayfield-Farms-70s/Almond/home/170461098,NewHomeSource.com,32.6282833,-97.1547052
Single Family Residential,Basswood,Arlington,TX,76001,318990,3,2,Mayfield Farms 70s,1813,,,,176,,http://www.redfin.com/TX/Arlington/Mayfield-Farms-70s/Basswood/home/170461097,NewHomeSource.com,32.6282833,-97.1547052
Single Family Residential,Cottonwood,Arlington,TX,76001,323990,3,2,Mayfield Farms 70s,1955,,,,166,,http://www.redfin.com/TX/Arlington/Mayfield-Farms-70s/Cottonwood/home/170461096,NewHomeSource.com,32.6282833,-97.1547052
Single Family Residential,Dublin,Arlington,TX,76002,409900,4,3.5,Edgefield,3813,,,,108,,http://www.redfin.com/TX/Arlington/Edgefield/Dublin/home/170031089,NewHomeSource.com,32.607707,-97.091635
Single Family Residential,Silverstone,Arlington,TX,76002,400900,3,2.5,Mayfield Farms,3290,,,,122,,http://www.redfin.com/TX/Arlington/Mayfield-Farms/Silverstone/home/171983209,NewHomeSource.com,32.627165,-97.100941
Single Family Residential,Eubanks by David Weekley Homes,Arlington,TX,76005,441990,4,3.5,Viridian,3518,,,,126,,http://www.redfin.com/TX/Arlington/Viridian/Eubanks-by-David-Weekley-Homes/home/142942595,NewHomeSource.com,32.7954878,-97.0782004
Single Family Residential,Brookstone I,Arlington,TX,76002,327900,3,2,Edgefield,2163,,,,152,,http://www.redfin.com/TX/Arlington/Edgefield/Brookstone-I/home/170031090,NewHomeSource.com,32.607707,-97.091635
Single Family Residential,Brookstone II,Arlington,TX,76002,355900,3,2,Mayfield Farms,2525,,,,141,,http://www.redfin.com/TX/Arlington/Mayfield-Farms/Brookstone-II/home/171983210,NewHomeSource.com,32.627165,-97.100941
Single Family Residential,Brimstone,Arlington,TX,76002,325900,3,2,Edgefield,2061,,,,158,,http://www.redfin.com/TX/Arlington/Edgefield/Brimstone/home/170031091,NewHomeSource.com,32.607707,-97.091635
Single Family Residential,Ashstone,Arlington,TX,76002,324900,3,2,Edgefield,2134,,,,152,,http://www.redfin.com/TX/Arlington/Edgefield/Ashstone/home/170031092,NewHomeSource.com,32.607707,-97.091635
Single Family Residential,Silverstone,Arlington,TX,76002,380900,3,2.5,Edgefield,3290,,,,116,,http://www.redfin.com/TX/Arlington/Edgefield/Silverstone/home/170031093,NewHomeSource.com,32.607707,-97.091635
Single Family Residential,Pixley,Arlington,TX,76005,348990,3,2,Viridian Cottage,1701,,,,205,,http://www.redfin.com/TX/Arlington/Viridian-Cottage/Pixley/home/169931479,NewHomeSource.com,32.79401,-97.083271
Single Family Residential,Verona,Arlington,TX,76005,532900,3,2.5,Viridian - Elements,2889,,,,184,,http://www.redfin.com/TX/Arlington/Viridian-Elements/Verona/home/167661640,NewHomeSource.com,32.809532,-97.073524
Single Family Residential,Brookstone II,Arlington,TX,76002,344900,3,2,Edgefield,2525,,,,137,,http://www.redfin.com/TX/Arlington/Edgefield/Brookstone-II/home/170031094,NewHomeSource.com,32.607707,-97.091635
Single Family Residential,Trenton,Arlington,TX,76005,317990,2,2,Viridian,1769,,,,180,,http://www.redfin.com/TX/Arlington/Viridian/Trenton/home/170688812,NewHomeSource.com,32.795547,-97.078378
Single Family Residential,Plan 224,Arlington,TX,76005,629990,4,3,Viridian: 60ft. lots,3979,,,,158,,http://www.redfin.com/TX/Arlington/Viridian-60ft-lots/Plan-224/home/170032684,NewHomeSource.com,32.796195,-97.077671
Single Family Residential,Marietta,Arlington,TX,76005,705990,4,3.5,Viridian Island 70' Homesites,4125,,,,171,,http://www.redfin.com/TX/Arlington/Viridian-Island-70-Homesites/Marietta/home/172067495,NewHomeSource.com,32.795238,-97.078523
Single Family Residential,Plan 222,Arlington,TX,76005,625990,4,3,Viridian: 60ft. lots,3610,,,,173,,http://www.redfin.com/TX/Arlington/Viridian-60ft-lots/Plan-222/home/170032685,NewHomeSource.com,32.796195,-97.077671
Single Family Residential,Pineland,Arlington,TX,76005,710990,4,4,Viridian Island 70' Homesites,4168,,,,171,,http://www.redfin.com/TX/Arlington/Viridian-Island-70-Homesites/Pineland/home/172067496,NewHomeSource.com,32.795238,-97.078523
Single Family Residential,Seneca,Arlington,TX,76005,296990,2,2,Viridian,1603,,,,185,,http://www.redfin.com/TX/Arlington/Viridian/Seneca/home/170688814,NewHomeSource.com,32.795547,-97.078378
Single Family Residential,Ashbrook,Arlington,TX,76005,436990,3,2.5,Viridian Executive,2414,,,,181,,http://www.redfin.com/TX/Arlington/Viridian-Executive/Ashbrook/home/169931476,NewHomeSource.com,32.79401,-97.083271
Single Family Residential,Plan 212,Arlington,TX,76005,567990,4,3,Viridian: 60ft. lots,2603,,,,218,,http://www.redfin.com/TX/Arlington/Viridian-60ft-lots/Plan-212/home/170032691,NewHomeSource.com,32.796195,-97.077671
Single Family Residential,Plan 221,Arlington,TX,76005,618990,4,3,Viridian: 60ft. lots,3517,,,,176,,http://www.redfin.com/TX/Arlington/Viridian-60ft-lots/Plan-221/home/170032686,NewHomeSource.com,32.796195,-97.077671
Single Family Residential,Hamlin,Arlington,TX,76005,700990,4,3.5,Viridian Island 70' Homesites,3817,,,,184,,http://www.redfin.com/TX/Arlington/Viridian-Island-70-Homesites/Hamlin/home/172067497,NewHomeSource.com,32.795238,-97.078523
Single Family Residential,Hazelwood,Arlington,TX,76005,371990,3,2.5,Viridian Cottage,2084,,,,178,,http://www.redfin.com/TX/Arlington/Viridian-Cottage/Hazelwood/home/169931478,NewHomeSource.com,32.79401,-97.083271
Single Family Residential,Plan 220,Arlington,TX,76005,595990,4,3,Viridian: 60ft. lots,3264,,,,183,,http://www.redfin.com/TX/Arlington/Viridian-60ft-lots/Plan-220/home/170032687,NewHomeSource.com,32.796195,-97.077671
Single Family Residential,Ames,Arlington,TX,76005,675990,4,3.5,Viridian Island 70' Homesites,3465,,,,195,,http://www.redfin.com/TX/Arlington/Viridian-Island-70-Homesites/Ames/home/172067498,NewHomeSource.com,32.795238,-97.078523
Single Family Residential,Malone,Arlington,TX,76005,303990,2,2,Viridian,1569,,,,194,,http://www.redfin.com/TX/Arlington/Viridian/Malone/home/170688816,NewHomeSource.com,32.795547,-97.078378
Single Family Residential,Plan 214,Arlington,TX,76005,571990,4,3,Viridian: 60ft. lots,2863,,,,200,,http://www.redfin.com/TX/Arlington/Viridian-60ft-lots/Plan-214/home/170032688,NewHomeSource.com,32.796195,-97.077671
Single Family Residential,Plan 309,Arlington,TX,76005,430990,4,3.5,Viridian: 40ft. lots,2455,,,,176,,http://www.redfin.com/TX/Arlington/Viridian-40ft-lots/Plan-309/home/169964311,NewHomeSource.com,32.795013,-97.078578
Single Family Residential,Hedley,Arlington,TX,76005,663990,4,3.5,Viridian Island 70' Homesites,3212,,,,207,,http://www.redfin.com/TX/Arlington/Viridian-Island-70-Homesites/Hedley/home/172067499,NewHomeSource.com,32.795238,-97.078523
Single Family Residential,Hazelbrook,Arlington,TX,76005,492990,4,3.5,Viridian Classics,3517,,,,140,,http://www.redfin.com/TX/Arlington/Viridian-Classics/Hazelbrook/home/169873400,NewHomeSource.com,32.79401,-97.083271
Single Family Residential,Plan 213,Arlington,TX,76005,568990,4,3,Viridian: 60ft. lots,2800,,,,203,,http://www.redfin.com/TX/Arlington/Viridian-60ft-lots/Plan-213/home/170032689,NewHomeSource.com,32.796195,-97.077671
Single Family Residential,Kinsely,Arlington,TX,76002,312900,3,2,Will's Place,1730,,,,181,,http://www.redfin.com/TX/Arlington/Will-s-Place/Kinsely/home/173774016,NewHomeSource.com,32.635611,-97.102391
