[
  {
    "Year": -4360,
    "Name": "Macauley Island",
    "Location": "Kermadec Is",
    "Country": "New Zealand",
    "Latitude": -30.2,
    "Longitude": -178.47,
    "Elevation": 238,
    "Type": "Caldera",
    "VEI": 6,
    "Agent": "",
    "Deaths": 0
  },
  {
    "Year": -4350,
    "Name": "Kikai",
    "Location": "Ryukyu Is",
    "Country": "Japan",
    "Latitude": 30.78,
    "Longitude": 130.28,
    "Elevation": 717,
    "Type": "Caldera",
    "VEI": 7,
    "Agent": "P",
    "Deaths": 0
  },
  {
    "Year": -4050,
    "Name": "Masaya",
    "Location": "Nicaragua",
    "Country": "Nicaragua",
    "Latitude": 11.984,
    "Longitude": -86.161,
    "Elevation": 635,
    "Type": "Caldera",
    "VEI": 6,
    "Agent": "",
    "Deaths": 0
  },
  {
    "Year": -4000,
    "Name": "Pago",
    "Location": "New Britain-SW Pac",
    "Country": "Papua New Guinea",
    "Latitude": -5.58,
    "Longitude": 150.52,
    "Elevation": 742,
    "Type": "Caldera",
    "VEI": 6,
    "Agent": "T",
    "Deaths": 0
  },
  {
    "Year": -3580,
    "Name": "Taal",
    "Location": "Luzon-Philippines",
    "Country": "Philippines",
    "Latitude": 14.002,
    "Longitude": 120.993,
    "Elevation": 400,
    "Type": "Stratovolcano",
    "VEI": 6,
    "Agent": "",
    "Deaths": 0
  },
  {
    "Year": -3550,
    "Name": "Pinatubo",
    "Location": "Luzon-Philippines",
    "Country": "Philippines",
    "Latitude": 15.13,
    "Longitude": 120.35,
    "Elevation": 1486,
    "Type": "Stratovolcano",
    "VEI": 6,
    "Agent": "",
    "Deaths": 0
  },
  {
    "Year": -2420,
    "Name": "Vesuvius",
    "Location": "Italy",
    "Country": "Italy",
    "Latitude": 40.821,
    "Longitude": 14.426,
    "Elevation": 1281,
    "Type": "Complex volcano",
    "VEI": 5,
    "Agent": "P,T",
    "Deaths": 0
  },
  {
    "Year": -2040,
    "Name": "Long Island",
    "Location": "New Guinea-NE of",
    "Country": "Papua New Guinea",
    "Latitude": -5.358,
    "Longitude": 147.12,
    "Elevation": 1280,
    "Type": "Complex volcano",
    "VEI": 6,
    "Agent": "",
    "Deaths": 0
  },
  {
    "Year": -1900,
    "Name": "Black Peak",
    "Location": "Alaska Peninsula",
    "Country": "United States",
    "Latitude": 56.53,
    "Longitude": -158.8,
    "Elevation": 1032,
    "Type": "Stratovolcano",
    "VEI": 6,
    "Agent": "",
    "Deaths": 0
  },
  {
    "Year": -1890,
    "Name": "Hudson, Cerro",
    "Location": "Chile-S",
    "Country": "Chile",
    "Latitude": -45.9,
    "Longitude": -72.97,
    "Elevation": 1905,
    "Type": "Stratovolcano",
    "VEI": 6,
    "Agent": "",
    "Deaths": 0
  },
  {
    "Year": -1860,
    "Name": "St. Helens",
    "Location": "US-Washington",
    "Country": "United States",
    "Latitude": 46.2,
    "Longitude": -122.18,
    "Elevation": 2549,
    "Type": "Stratovolcano",
    "VEI": 6,
    "Agent": "",
    "Deaths": 0
  },
  {
    "Year": -1750,
    "Name": "Veniaminof",
    "Location": "Alaska Peninsula",
    "Country": "United States",
    "Latitude": 56.17,
    "Longitude": -159.38,
    "Elevation": 2507,
    "Type": "Stratovolcano",
    "VEI": 6,
    "Agent": "",
    "Deaths": 0
  },
  {
    "Year": -1645,
    "Name": "Aniakchak",
    "Location": "Alaska Peninsula",
    "Country": "United States",
    "Latitude": 56.88,
    "Longitude": -158.17,
    "Elevation": 1341,
    "Type": "Caldera",
    "VEI": 6,
    "Agent": "",
    "Deaths": 0
  },
  {
    "Year": -1610,
    "Name": "Santorini",
    "Location": "Greece",
    "Country": "Greece",
    "Latitude": 36.404,
    "Longitude": 25.396,
    "Elevation": 329,
    "Type": "Shield volcano",
    "VEI": 7,
    "Agent": "W",
    "Deaths": 0
  },
  {
    "Year": -1550,
    "Name": "Redoubt",
    "Location": "Alaska-SW",
    "Country": "United States",
    "Latitude": 60.48,
    "Longitude": -152.75,
    "Elevation": 3108,
    "Type": "Stratovolcano",
    "VEI": null,
    "Agent": "",
    "Deaths": 0
  },
  {
    "Year": -1460,
    "Name": "Taupo",
    "Location": "New Zealand",
    "Country": "New Zealand",
    "Latitude": -38.82,
    "Longitude": 176,
    "Elevation": 760,
    "Type": "Caldera",
    "VEI": 6,
    "Agent": "",
    "Deaths": 0
  },
  {
    "Year": -1370,
    "Name": "Pago",
    "Location": "New Britain-SW Pac",
    "Country": "Papua New Guinea",
    "Latitude": -5.58,
    "Longitude": 150.52,
    "Elevation": 742,
    "Type": "Caldera",
    "VEI": 6,
    "Agent": "",
    "Deaths": 0
  },
  {
    "Year": -1050,
    "Name": "Pinatubo",
    "Location": "Luzon-Philippines",
    "Country": "Philippines",
    "Latitude": 15.13,
    "Longitude": 120.35,
    "Elevation": 1486,
    "Type": "Stratovolcano",
    "VEI": 6,
    "Agent": "",
    "Deaths": 0
  },
  {
    "Year": -1010,
    "Name": "Tungurahua",
    "Location": "Ecuador",
    "Country": "Ecuador",
    "Latitude": -1.467,
    "Longitude": -78.442,
    "Elevation": 5023,
    "Type": "Stratovolcano",
    "VEI": 5,
    "Agent": "",
    "Deaths": 0
  },
  {
    "Year": -455,
    "Name": "Cotopaxi",
    "Location": "Ecuador",
    "Country": "Ecuador",
    "Latitude": -0.677,
    "Longitude": -78.436,
    "Elevation": 5911,
    "Type": "Stratovolcano",
    "VEI": 4,
    "Agent": "M",
    "Deaths": 0
  },
  {
    "Year": -250,
    "Name": "Raoul Island",
    "Location": "Kermadec Is",
    "Country": "New Zealand",
    "Latitude": -29.27,
    "Longitude": -177.92,
    "Elevation": 516,
    "Type": "Stratovolcano",
    "VEI": 6,
    "Agent": "",
    "Deaths": 0
  },
  {
    "Year": -197,
    "Name": "Santorini",
    "Location": "Greece",
    "Country": "Greece",
    "Latitude": 36.404,
    "Longitude": 25.396,
    "Elevation": 329,
    "Type": "Shield volcano",
    "VEI": 3,
    "Agent": "",
    "Deaths": 0
  },
  {
    "Year": -150,
    "Name": "St. Andrew Strait",
    "Location": "Admiralty Is-SW Paci",
    "Country": "Papua New Guinea",
    "Latitude": -2.38,
    "Longitude": 147.35,
    "Elevation": 270,
    "Type": "Complex volcano",
    "VEI": null,
    "Agent": "",
    "Deaths": 0
  },
  {
    "Year": -141,
    "Name": "Etna",
    "Location": "Italy",
    "Country": "Italy",
    "Latitude": 37.734,
    "Longitude": 15.004,
    "Elevation": 3350,
    "Type": "Stratovolcano",
    "VEI": null,
    "Agent": "",
    "Deaths": 40
  },
  {
    "Year": -100,
    "Name": "Okmok",
    "Location": "Aleutian Is",
    "Country": "United States",
    "Latitude": 53.42,
    "Longitude": -168.13,
    "Elevation": 1073,
    "Type": "Shield volcano",
    "VEI": 6,
    "Agent": "",
    "Deaths": 0
  },
  {
    "Year": -50,
    "Name": "Apoyeque",
    "Location": "Nicaragua",
    "Country": "Nicaragua",
    "Latitude": 12.242,
    "Longitude": -86.342,
    "Elevation": 518,
    "Type": "Pyroclastic shield",
    "VEI": 6,
    "Agent": "",
    "Deaths": 0
  },
  {
    "Year": 46,
    "Name": "Santorini",
    "Location": "Greece",
    "Country": "Greece",
    "Latitude": 36.404,
    "Longitude": 25.396,
    "Elevation": 329,
    "Type": "Shield volcano",
    "VEI": 3,
    "Agent": "",
    "Deaths": 0
  },
  {
    "Year": 50,
    "Name": "Ambrym",
    "Location": "Vanuatu-SW Pacific",
    "Country": "Vanuatu",
    "Latitude": -16.25,
    "Longitude": 168.12,
    "Elevation": 1334,
    "Type": "Pyroclastic shield",
    "VEI": 6,
    "Agent": "",
    "Deaths": 0
  },
  {
    "Year": 60,
    "Name": "Bona-Churchill",
    "Location": "Alaska-E",
    "Country": "United States",
    "Latitude": 61.38,
    "Longitude": -141.75,
    "Elevation": 5005,
    "Type": "Stratovolcano",
    "VEI": 6,
    "Agent": "",
    "Deaths": 0
  },
  {
    "Year": 79,
    "Name": "Vesuvius",
    "Location": "Italy",
    "Country": "Italy",
    "Latitude": 40.821,
    "Longitude": 14.426,
    "Elevation": 1281,
    "Type": "Complex volcano",
    "VEI": 5,
    "Agent": "P,T",
    "Deaths": 2100
  },
  {
    "Year": 200,
    "Name": "Arhab, Harra of",
    "Location": "Arabia-S",
    "Country": "Yemen",
    "Latitude": 15.63,
    "Longitude": 44.08,
    "Elevation": 3100,
    "Type": "Volcanic field",
    "VEI": null,
    "Agent": "",
    "Deaths": 0
  },
  {
    "Year": 230,
    "Name": "Taupo",
    "Location": "New Zealand",
    "Country": "New Zealand",
    "Latitude": -38.82,
    "Longitude": 176,
    "Elevation": 760,
    "Type": "Caldera",
    "VEI": 6,
    "Agent": "",
    "Deaths": 0
  },
  {
    "Year": 240,
    "Name": "Ksudach",
    "Location": "Kamchatka",
    "Country": "Russia",
    "Latitude": 51.8,
    "Longitude": 157.53,
    "Elevation": 1079,
    "Type": "Stratovolcano",
    "VEI": 6,
    "Agent": "",
    "Deaths": 0
  },
  {
    "Year": 350,
    "Name": "Augustine",
    "Location": "Alaska-SW",
    "Country": "United States",
    "Latitude": 59.37,
    "Longitude": -153.42,
    "Elevation": 1252,
    "Type": "Lava dome",
    "VEI": null,
    "Agent": "",
    "Deaths": 0
  },
  {
    "Year": 416,
    "Name": "Krakatau",
    "Location": "Indonesia",
    "Country": "Indonesia",
    "Latitude": -6.102,
    "Longitude": 105.423,
    "Elevation": 813,
    "Type": "Caldera",
    "VEI": null,
    "Agent": "W",
    "Deaths": 0
  },
  {
    "Year": 450,
    "Name": "Ilopango",
    "Location": "El Salvador",
    "Country": "El Salvador",
    "Latitude": 13.672,
    "Longitude": -89.053,
    "Elevation": 450,
    "Type": "Caldera",
    "VEI": 6,
    "Agent": "",
    "Deaths": 30000
  },
  {
    "Year": 500,
    "Name": "Arhab, Harra of",
    "Location": "Arabia-S",
    "Country": "Yemen",
    "Latitude": 15.63,
    "Longitude": 44.08,
    "Elevation": 3100,
    "Type": "Volcanic field",
    "VEI": null,
    "Agent": "",
    "Deaths": 0
  },
  {
    "Year": 590,
    "Name": "San Salvador",
    "Location": "El Salvador",
    "Country": "El Salvador",
    "Latitude": 13.736,
    "Longitude": -89.286,
    "Elevation": 1893,
    "Type": "Stratovolcano",
    "VEI": null,
    "Agent": "",
    "Deaths": 0
  },
  {
    "Year": 640,
    "Name": "Uwayrid, Harrat",
    "Location": "Arabia-W",
    "Country": "Saudi Arabia",
    "Latitude": 27.08,
    "Longitude": 37.25,
    "Elevation": 1900,
    "Type": "Volcanic field",
    "VEI": 2,
    "Agent": "T",
    "Deaths": 0
  },
  {
    "Year": 653,
    "Name": "Dakataua",
    "Location": "New Britain-SW Pac",
    "Country": "Papua New Guinea",
    "Latitude": -5.056,
    "Longitude": 150.108,
    "Elevation": 400,
    "Type": "Caldera",
    "VEI": 6,
    "Agent": "",
    "Deaths": 0
  },
  {
    "Year": 683,
    "Name": "Rabaul",
    "Location": "New Britain-SW Pac",
    "Country": "Papua New Guinea",
    "Latitude": -4.271,
    "Longitude": 152.203,
    "Elevation": 688,
    "Type": "Pyroclastic shield",
    "VEI": 6,
    "Agent": "",
    "Deaths": 0
  },
  {
    "Year": 710,
    "Name": "Pago",
    "Location": "New Britain-SW Pac",
    "Country": "Papua New Guinea",
    "Latitude": -5.58,
    "Longitude": 150.52,
    "Elevation": 742,
    "Type": "Caldera",
    "VEI": 6,
    "Agent": "",
    "Deaths": 0
  },
  {
    "Year": 764,
    "Name": "Sakura-jima",
    "Location": "Kyushu-Japan",
    "Country": "Japan",
    "Latitude": 31.58,
    "Longitude": 130.67,
    "Elevation": 1117,
    "Type": "Stratovolcano",
    "VEI": 4,
    "Agent": "T,L",
    "Deaths": 80
  },
  {
    "Year": 766,
    "Name": "Sakura-jima",
    "Location": "Kyushu-Japan",
    "Country": "Japan",
    "Latitude": 31.58,
    "Longitude": 130.67,
    "Elevation": 1117,
    "Type": "Stratovolcano",
    "VEI": 3,
    "Agent": "",
    "Deaths": 0
  },
  {
    "Year": 787,
    "Name": "Vesuvius",
    "Location": "Italy",
    "Country": "Italy",
    "Latitude": 40.821,
    "Longitude": 14.426,
    "Elevation": 1281,
    "Type": "Complex volcano",
    "VEI": 3,
    "Agent": "",
    "Deaths": 0
  },
  {
    "Year": 847,
    "Name": "Bona-Churchill",
    "Location": "Alaska-E",
    "Country": "United States",
    "Latitude": 61.38,
    "Longitude": -141.75,
    "Elevation": 5005,
    "Type": "Stratovolcano",
    "VEI": 6,
    "Agent": "",
    "Deaths": 0
  },
  {
    "Year": 920,
    "Name": "Katla",
    "Location": "Iceland-S",
    "Country": "Iceland",
    "Latitude": 63.63,
    "Longitude": -19.05,
    "Elevation": 1512,
    "Type": "Subglacial volcano",
    "VEI": 4,
    "Agent": "",
    "Deaths": 0
  },
  {
    "Year": 930,
    "Name": "Ceboruco",
    "Location": "Mexico",
    "Country": "Mexico",
    "Latitude": 21.125,
    "Longitude": -104.508,
    "Elevation": 2280,
    "Type": "Stratovolcano",
    "VEI": 6,
    "Agent": "",
    "Deaths": 0
  },
  {
    "Year": 934,
    "Name": "Katla",
    "Location": "Iceland-S",
    "Country": "Iceland",
    "Latitude": 63.63,
    "Longitude": -19.05,
    "Elevation": 1512,
    "Type": "Subglacial volcano",
    "VEI": 4,
    "Agent": "",
    "Deaths": 0
  },
  {
    "Year": 950,
    "Name": "Katla",
    "Location": "Iceland-S",
    "Country": "Iceland",
    "Latitude": 63.63,
    "Longitude": -19.05,
    "Elevation": 1512,
    "Type": "Subglacial volcano",
    "VEI": null,
    "Agent": "",
    "Deaths": 0
  },
  {
    "Year": 1000,
    "Name": "Changbaishan",
    "Location": "China-E",
    "Country": "North Korea",
    "Latitude": 41.98,
    "Longitude": 128.08,
    "Elevation": 2744,
    "Type": "Stratovolcano",
    "VEI": 7,
    "Agent": "",
    "Deaths": 0
  },
  {
    "Year": 1050,
    "Name": "Santorini",
    "Location": "Greece",
    "Country": "Greece",
    "Latitude": 36.404,
    "Longitude": 25.396,
    "Elevation": 329,
    "Type": "Shield volcano",
    "VEI": null,
    "Agent": "",
    "Deaths": 0
  },
  {
    "Year": 1104,
    "Name": "Hekla",
    "Location": "Iceland-S",
    "Country": "Iceland",
    "Latitude": 63.98,
    "Longitude": -19.7,
    "Elevation": 1491,
    "Type": "Stratovolcano",
    "VEI": 5,
    "Agent": "",
    "Deaths": 0
  },
  {
    "Year": 1151,
    "Name": "Krisuvik",
    "Location": "Iceland-SW",
    "Country": "Iceland",
    "Latitude": 63.93,
    "Longitude": -22.1,
    "Elevation": 379,
    "Type": "Crater rows",
    "VEI": 1,
    "Agent": "",
    "Deaths": 0
  },
  {
    "Year": 1158,
    "Name": "Hekla",
    "Location": "Iceland-S",
    "Country": "Iceland",
    "Latitude": 63.98,
    "Longitude": -19.7,
    "Elevation": 1491,
    "Type": "Stratovolcano",
    "VEI": 4,
    "Agent": "",
    "Deaths": 0
  },
  {
    "Year": 1169,
    "Name": "Etna",
    "Location": "Italy",
    "Country": "Italy",
    "Latitude": 37.734,
    "Longitude": 15.004,
    "Elevation": 3350,
    "Type": "Stratovolcano",
    "VEI": null,
    "Agent": "S,W",
    "Deaths": 0
  },
  {
    "Year": 1169,
    "Name": "Etna",
    "Location": "Italy",
    "Country": "Italy",
    "Latitude": 37.734,
    "Longitude": 15.004,
    "Elevation": 3350,
    "Type": "Stratovolcano",
    "VEI": null,
    "Agent": "",
    "Deaths": 0
  },
  {
    "Year": 1177,
    "Name": "Katla",
    "Location": "Iceland-S",
    "Country": "Iceland",
    "Latitude": 63.63,
    "Longitude": -19.05,
    "Elevation": 1512,
    "Type": "Subglacial volcano",
    "VEI": 3,
    "Agent": "",
    "Deaths": 0
  },
  {
    "Year": 1206,
    "Name": "Hekla",
    "Location": "Iceland-S",
    "Country": "Iceland",
    "Latitude": 63.98,
    "Longitude": -19.7,
    "Elevation": 1491,
    "Type": "Stratovolcano",
    "VEI": 2,
    "Agent": "",
    "Deaths": 0
  },
  {
    "Year": 1250,
    "Name": "Fentale",
    "Location": "Africa-NE",
    "Country": "Ethiopia",
    "Latitude": 8.975,
    "Longitude": 39.93,
    "Elevation": 2007,
    "Type": "Stratovolcano",
    "VEI": null,
    "Agent": "",
    "Deaths": 0
  },
  {
    "Year": 1262,
    "Name": "Katla",
    "Location": "Iceland-S",
    "Country": "Iceland",
    "Latitude": 63.63,
    "Longitude": -19.05,
    "Elevation": 1512,
    "Type": "Subglacial volcano",
    "VEI": 3,
    "Agent": "F",
    "Deaths": 0
  },
  {
    "Year": 1280,
    "Name": "Quilotoa",
    "Location": "Ecuador",
    "Country": "Ecuador",
    "Latitude": -0.85,
    "Longitude": -78.9,
    "Elevation": 3914,
    "Type": "Caldera",
    "VEI": 6,
    "Agent": "",
    "Deaths": 0
  },
  {
    "Year": 1300,
    "Name": "Hekla",
    "Location": "Iceland-S",
    "Country": "Iceland",
    "Latitude": 63.98,
    "Longitude": -19.7,
    "Elevation": 1491,
    "Type": "Stratovolcano",
    "VEI": 4,
    "Agent": "",
    "Deaths": 0
  },
  {
    "Year": 1302,
    "Name": "Ischia",
    "Location": "Italy",
    "Country": "Italy",
    "Latitude": 40.73,
    "Longitude": 13.897,
    "Elevation": 789,
    "Type": "Complex volcano",
    "VEI": null,
    "Agent": "",
    "Deaths": 0
  },
  {
    "Year": 1311,
    "Name": "Katla",
    "Location": "Iceland-S",
    "Country": "Iceland",
    "Latitude": 63.63,
    "Longitude": -19.05,
    "Elevation": 1512,
    "Type": "Subglacial volcano",
    "VEI": 4,
    "Agent": "F",
    "Deaths": 0
  },
  {
    "Year": 1311,
    "Name": "Kelut",
    "Location": "Java",
    "Country": "Indonesia",
    "Latitude": -7.93,
    "Longitude": 112.308,
    "Elevation": 1731,
    "Type": "Stratovolcano",
    "VEI": 3,
    "Agent": "",
    "Deaths": 0
  },
  {
    "Year": 1329,
    "Name": "Etna",
    "Location": "Italy",
    "Country": "Italy",
    "Latitude": 37.734,
    "Longitude": 15.004,
    "Elevation": 3350,
    "Type": "Stratovolcano",
    "VEI": 3,
    "Agent": "",
    "Deaths": 0
  },
  {
    "Year": 1329,
    "Name": "Etna",
    "Location": "Italy",
    "Country": "Italy",
    "Latitude": 37.734,
    "Longitude": 15.004,
    "Elevation": 3350,
    "Type": "Stratovolcano",
    "VEI": 1,
    "Agent": "I",
    "Deaths": 0
  },
  {
    "Year": 1331,
    "Name": "Aso",
    "Location": "Kyushu-Japan",
    "Country": "Japan",
    "Latitude": 32.88,
    "Longitude": 131.1,
    "Elevation": 1592,
    "Type": "Caldera",
    "VEI": 2,
    "Agent": "",
    "Deaths": 0
  },
  {
    "Year": 1334,
    "Name": "Kelut",
    "Location": "Java",
    "Country": "Indonesia",
    "Latitude": -7.93,
    "Longitude": 112.308,
    "Elevation": 1731,
    "Type": "Stratovolcano",
    "VEI": 3,
    "Agent": "",
    "Deaths": 0
  },
  {
    "Year": 1341,
    "Name": "Hekla",
    "Location": "Iceland-S",
    "Country": "Iceland",
    "Latitude": 63.98,
    "Longitude": -19.7,
    "Elevation": 1491,
    "Type": "Stratovolcano",
    "VEI": 3,
    "Agent": "",
    "Deaths": 0
  },
  {
    "Year": 1357,
    "Name": "Katla",
    "Location": "Iceland-S",
    "Country": "Iceland",
    "Latitude": 63.63,
    "Longitude": -19.05,
    "Elevation": 1512,
    "Type": "Subglacial volcano",
    "VEI": 4,
    "Agent": "",
    "Deaths": 0
  },
  {
    "Year": 1362,
    "Name": "Oraefajokull",
    "Location": "Iceland-SE",
    "Country": "Iceland",
    "Latitude": 64,
    "Longitude": -16.65,
    "Elevation": 2119,
    "Type": "Stratovolcano",
    "VEI": 5,
    "Agent": "T,F",
    "Deaths": 220
  },
  {
    "Year": 1375,
    "Name": "Chichon, El",
    "Location": "Mexico",
    "Country": "Mexico",
    "Latitude": 17.36,
    "Longitude": -93.228,
    "Elevation": 1150,
    "Type": "Tuff cone",
    "VEI": 5,
    "Agent": "M",
    "Deaths": 0
  },
  {
    "Year": 1376,
    "Name": "Kelut",
    "Location": "Java",
    "Country": "Indonesia",
    "Latitude": -7.93,
    "Longitude": 112.308,
    "Elevation": 1731,
    "Type": "Stratovolcano",
    "VEI": 3,
    "Agent": "",
    "Deaths": 0
  },
  {
    "Year": 1385,
    "Name": "Kelut",
    "Location": "Java",
    "Country": "Indonesia",
    "Latitude": -7.93,
    "Longitude": 112.308,
    "Elevation": 1731,
    "Type": "Stratovolcano",
    "VEI": 3,
    "Agent": "",
    "Deaths": 0
  },
  {
    "Year": 1389,
    "Name": "Hekla",
    "Location": "Iceland-S",
    "Country": "Iceland",
    "Latitude": 63.98,
    "Longitude": -19.7,
    "Elevation": 1491,
    "Type": "Stratovolcano",
    "VEI": 3,
    "Agent": "",
    "Deaths": 0
  },
  {
    "Year": 1410,
    "Name": "Nasu",
    "Location": "Honshu-Japan",
    "Country": "Japan",
    "Latitude": 37.12,
    "Longitude": 139.97,
    "Elevation": 1917,
    "Type": "Stratovolcano",
    "VEI": 3,
    "Agent": "",
    "Deaths": 180
  },
  {
    "Year": 1430,
    "Name": "Kuwae",
    "Location": "Vanuatu-SW Pacific",
    "Country": "Vanuatu",
    "Latitude": -16.829,
    "Longitude": 168.536,
    "Elevation": -2,
    "Type": "Caldera",
    "VEI": null,
    "Agent": "P",
    "Deaths": 0
  },
  {
    "Year": 1471,
    "Name": "Sakura-jima",
    "Location": "Kyushu-Japan",
    "Country": "Japan",
    "Latitude": 31.58,
    "Longitude": 130.67,
    "Elevation": 1117,
    "Type": "Stratovolcano",
    "VEI": 5,
    "Agent": "P",
    "Deaths": 0
  },
  {
    "Year": 1477,
    "Name": "Bardarbunga",
    "Location": "Iceland-NE",
    "Country": "Iceland",
    "Latitude": 64.63,
    "Longitude": -17.53,
    "Elevation": 2000,
    "Type": "Stratovolcano",
    "VEI": 6,
    "Agent": "",
    "Deaths": 0
  },
  {
    "Year": 1485,
    "Name": "Aso",
    "Location": "Kyushu-Japan",
    "Country": "Japan",
    "Latitude": 32.88,
    "Longitude": 131.1,
    "Elevation": 1592,
    "Type": "Caldera",
    "VEI": 2,
    "Agent": "",
    "Deaths": 1
  },
  {
    "Year": 1500,
    "Name": "Katla",
    "Location": "Iceland-S",
    "Country": "Iceland",
    "Latitude": 63.63,
    "Longitude": -19.05,
    "Elevation": 1512,
    "Type": "Subglacial volcano",
    "VEI": 4,
    "Agent": "",
    "Deaths": 0
  },
  {
    "Year": 1510,
    "Name": "Hekla",
    "Location": "Iceland-S",
    "Country": "Iceland",
    "Latitude": 63.98,
    "Longitude": -19.7,
    "Elevation": 1491,
    "Type": "Stratovolcano",
    "VEI": 4,
    "Agent": "T",
    "Deaths": 1
  },
  {
    "Year": 1510,
    "Name": "Hekla",
    "Location": "Iceland-S",
    "Country": "Iceland",
    "Latitude": 63.98,
    "Longitude": -19.7,
    "Elevation": 1491,
    "Type": "Stratovolcano",
    "VEI": 4,
    "Agent": "I",
    "Deaths": 0
  },
  {
    "Year": 1536,
    "Name": "Etna",
    "Location": "Italy",
    "Country": "Italy",
    "Latitude": 37.734,
    "Longitude": 15.004,
    "Elevation": 3350,
    "Type": "Stratovolcano",
    "VEI": 3,
    "Agent": "T",
    "Deaths": 1
  },
  {
    "Year": 1538,
    "Name": "Campi Flegrei",
    "Location": "Italy",
    "Country": "Italy",
    "Latitude": 40.827,
    "Longitude": 14.139,
    "Elevation": 458,
    "Type": "Caldera",
    "VEI": 3,
    "Agent": "T",
    "Deaths": 24
  },
  {
    "Year": 1540,
    "Name": "Augustine",
    "Location": "Alaska-SW",
    "Country": "United States",
    "Latitude": 59.37,
    "Longitude": -153.42,
    "Elevation": 1252,
    "Type": "Lava dome",
    "VEI": 4,
    "Agent": "",
    "Deaths": 0
  },
  {
    "Year": 1550,
    "Name": "Dukono",
    "Location": "Halmahera-Indonesia",
    "Country": "Indonesia",
    "Latitude": 1.68,
    "Longitude": 127.88,
    "Elevation": 1185,
    "Type": "Complex volcano",
    "VEI": 3,
    "Agent": "",
    "Deaths": 0
  },
  {
    "Year": 1564,
    "Name": "Gamkonora",
    "Location": "Halmahera-Indonesia",
    "Country": "Indonesia",
    "Latitude": 1.375,
    "Longitude": 127.52,
    "Elevation": 1635,
    "Type": "Stratovolcano",
    "VEI": 3,
    "Agent": "",
    "Deaths": 0
  },
  {
    "Year": 1565,
    "Name": "Pacaya",
    "Location": "Guatemala",
    "Country": "Guatemala",
    "Latitude": 14.381,
    "Longitude": -90.601,
    "Elevation": 2552,
    "Type": "Complex volcano",
    "VEI": 3,
    "Agent": "",
    "Deaths": 0
  },
  {
    "Year": 1566,
    "Name": "Kirishima",
    "Location": "Kyushu-Japan",
    "Country": "Japan",
    "Latitude": 31.93,
    "Longitude": 130.87,
    "Elevation": 1700,
    "Type": "Shield volcano",
    "VEI": 3,
    "Agent": "",
    "Deaths": 0
  },
  {
    "Year": 1568,
    "Name": "Savo",
    "Location": "Solomon Is-SW Pacifi",
    "Country": "Solomon Is.",
    "Latitude": -9.13,
    "Longitude": 159.82,
    "Elevation": 510,
    "Type": "Stratovolcano",
    "VEI": 3,
    "Agent": "P,T,M",
    "Deaths": 1001
  },
  {
    "Year": 1570,
    "Name": "Mombacho",
    "Location": "Nicaragua",
    "Country": "Nicaragua",
    "Latitude": 11.826,
    "Longitude": -85.968,
    "Elevation": 1344,
    "Type": "Stratovolcano",
    "VEI": null,
    "Agent": "A",
    "Deaths": 400
  },
  {
    "Year": 1576,
    "Name": "Colima",
    "Location": "Mexico",
    "Country": "Mexico",
    "Latitude": 19.514,
    "Longitude": -103.62,
    "Elevation": 3850,
    "Type": "Stratovolcano",
    "VEI": 3,
    "Agent": "",
    "Deaths": 0
  },
  {
    "Year": 1580,
    "Name": "San Jorge",
    "Location": "Azores",
    "Country": "Portugal",
    "Latitude": 38.65,
    "Longitude": -28.08,
    "Elevation": 1053,
    "Type": "Fissure vent",
    "VEI": 3,
    "Agent": "P",
    "Deaths": 10
  },
  {
    "Year": 1580,
    "Name": "Katla",
    "Location": "Iceland-S",
    "Country": "Iceland",
    "Latitude": 63.63,
    "Longitude": -19.05,
    "Elevation": 1512,
    "Type": "Subglacial volcano",
    "VEI": 4,
    "Agent": "",
    "Deaths": 0
  },
  {
    "Year": 1580,
    "Name": "Billy Mitchell",
    "Location": "Bougainville-SW Paci",
    "Country": "Papua New Guinea",
    "Latitude": -6.092,
    "Longitude": 155.225,
    "Elevation": 1544,
    "Type": "Pyroclastic shield",
    "VEI": 6,
    "Agent": "",
    "Deaths": 0
  },
  {
    "Year": 1581,
    "Name": "Fuego",
    "Location": "Guatemala",
    "Country": "Guatemala",
    "Latitude": 14.473,
    "Longitude": -90.88,
    "Elevation": 3763,
    "Type": "Stratovolcano",
    "VEI": 4,
    "Agent": "",
    "Deaths": 0
  },
  {
    "Year": 1586,
    "Name": "Kelut",
    "Location": "Java",
    "Country": "Indonesia",
    "Latitude": -7.93,
    "Longitude": 112.308,
    "Elevation": 1731,
    "Type": "Stratovolcano",
    "VEI": 5,
    "Agent": "",
    "Deaths": 10000
  },
  {
    "Year": 1587,
    "Name": "Merapi",
    "Location": "Java",
    "Country": "Indonesia",
    "Latitude": -7.542,
    "Longitude": 110.442,
    "Elevation": 2947,
    "Type": "Stratovolcano",
    "VEI": 4,
    "Agent": "",
    "Deaths": 0
  },
  {
    "Year": 1590,
    "Name": "Colima",
    "Location": "Mexico",
    "Country": "Mexico",
    "Latitude": 19.514,
    "Longitude": -103.62,
    "Elevation": 3850,
    "Type": "Stratovolcano",
    "VEI": 3,
    "Agent": "I",
    "Deaths": 0
  },
  {
    "Year": 1593,
    "Name": "Raung",
    "Location": "Java",
    "Country": "Indonesia",
    "Latitude": -8.125,
    "Longitude": 114.042,
    "Elevation": 3332,
    "Type": "Stratovolcano",
    "VEI": 5,
    "Agent": "",
    "Deaths": 0
  },
  {
    "Year": 1595,
    "Name": "Ruiz",
    "Location": "Colombia",
    "Country": "Colombia",
    "Latitude": 4.895,
    "Longitude": -75.322,
    "Elevation": 5321,
    "Type": "Stratovolcano",
    "VEI": 4,
    "Agent": "M",
    "Deaths": 636
  },
  {
    "Year": 1596,
    "Name": "Asama",
    "Location": "Honshu-Japan",
    "Country": "Japan",
    "Latitude": 36.4,
    "Longitude": 138.53,
    "Elevation": 2560,
    "Type": "Complex volcano",
    "VEI": 2,
    "Agent": "T",
    "Deaths": 0
  },
  {
    "Year": 1597,
    "Name": "Hekla",
    "Location": "Iceland-S",
    "Country": "Iceland",
    "Latitude": 63.98,
    "Longitude": -19.7,
    "Elevation": 1491,
    "Type": "Stratovolcano",
    "VEI": 4,
    "Agent": "",
    "Deaths": 0
  },
  {
    "Year": 1597,
    "Name": "Raung",
    "Location": "Java",
    "Country": "Indonesia",
    "Latitude": -8.125,
    "Longitude": 114.042,
    "Elevation": 3332,
    "Type": "Stratovolcano",
    "VEI": 3,
    "Agent": "T",
    "Deaths": 0
  },
  {
    "Year": 1598,
    "Name": "Asama",
    "Location": "Honshu-Japan",
    "Country": "Japan",
    "Latitude": 36.4,
    "Longitude": 138.53,
    "Elevation": 2560,
    "Type": "Complex volcano",
    "VEI": 2,
    "Agent": "T",
    "Deaths": 800
  },
  {
    "Year": 1598,
    "Name": "Banda Api",
    "Location": "Banda Sea",
    "Country": "Pacific Ocean",
    "Latitude": -4.525,
    "Longitude": 129.871,
    "Elevation": 640,
    "Type": "Caldera",
    "VEI": 3,
    "Agent": "",
    "Deaths": 0
  },
  {
    "Year": 1600,
    "Name": "Huaynaputina",
    "Location": "Peru",
    "Country": "Peru",
    "Latitude": -16.608,
    "Longitude": -70.85,
    "Elevation": 4850,
    "Type": "Stratovolcano",
    "VEI": 6,
    "Agent": "",
    "Deaths": 1500
  },
  {
    "Year": 1606,
    "Name": "Hachijo-jima",
    "Location": "Izu Is-Japan",
    "Country": "Japan",
    "Latitude": 33.13,
    "Longitude": 139.77,
    "Elevation": 854,
    "Type": "Stratovolcano",
    "VEI": 2,
    "Agent": "",
    "Deaths": 0
  },
  {
    "Year": 1608,
    "Name": "Gamalama",
    "Location": "Halmahera-Indonesia",
    "Country": "Indonesia",
    "Latitude": 0.8,
    "Longitude": 127.325,
    "Elevation": 1715,
    "Type": "Stratovolcano",
    "VEI": 3,
    "Agent": "",
    "Deaths": 0
  },
  {
    "Year": 1609,
    "Name": "Tengchong",
    "Location": "China-S",
    "Country": "China",
    "Latitude": 25.32,
    "Longitude": 98.47,
    "Elevation": 2865,
    "Type": "Pyroclastic cone",
    "VEI": null,
    "Agent": "E",
    "Deaths": 0
  },
  {
    "Year": 1615,
    "Name": "Banda Api",
    "Location": "Banda Sea",
    "Country": "Pacific Ocean",
    "Latitude": -4.525,
    "Longitude": 129.871,
    "Elevation": 640,
    "Type": "Caldera",
    "VEI": 3,
    "Agent": "",
    "Deaths": 0
  },
  {
    "Year": 1617,
    "Name": "Fuego",
    "Location": "Guatemala",
    "Country": "Guatemala",
    "Latitude": 14.473,
    "Longitude": -90.88,
    "Elevation": 3763,
    "Type": "Stratovolcano",
    "VEI": 3,
    "Agent": "",
    "Deaths": 0
  },
  {
    "Year": 1625,
    "Name": "Katla",
    "Location": "Iceland-S",
    "Country": "Iceland",
    "Latitude": 63.63,
    "Longitude": -19.05,
    "Elevation": 1512,
    "Type": "Subglacial volcano",
    "VEI": 5,
    "Agent": "",
    "Deaths": 0
  },
  {
    "Year": 1629,
    "Name": "Grimsvotn",
    "Location": "Iceland-NE",
    "Country": "Iceland",
    "Latitude": 64.42,
    "Longitude": -17.33,
    "Elevation": 1725,
    "Type": "Caldera",
    "VEI": 2,
    "Agent": "F",
    "Deaths": 4
  },
  {
    "Year": 1630,
    "Name": "Furnas",
    "Location": "Azores",
    "Country": "Portugal",
    "Latitude": 37.77,
    "Longitude": -25.32,
    "Elevation": 805,
    "Type": "Stratovolcano",
    "VEI": 4,
    "Agent": "M,T",
    "Deaths": 200
  },
  {
    "Year": 1631,
    "Name": "Dama Ali",
    "Location": "Africa-NE",
    "Country": "Ethiopia",
    "Latitude": 11.28,
    "Longitude": 41.63,
    "Elevation": 1068,
    "Type": "Shield volcano",
    "VEI": null,
    "Agent": "S",
    "Deaths": 50
  },
  {
    "Year": 1631,
    "Name": "Vesuvius",
    "Location": "Italy",
    "Country": "Italy",
    "Latitude": 40.821,
    "Longitude": 14.426,
    "Elevation": 1281,
    "Type": "Complex volcano",
    "VEI": 5,
    "Agent": "P,E,M",
    "Deaths": 4000
  },
  {
    "Year": 1636,
    "Name": "Hekla",
    "Location": "Iceland-S",
    "Country": "Iceland",
    "Latitude": 63.98,
    "Longitude": -19.7,
    "Elevation": 1491,
    "Type": "Stratovolcano",
    "VEI": 3,
    "Agent": "",
    "Deaths": 0
  },
  {
    "Year": 1638,
    "Name": "Raung",
    "Location": "Java",
    "Country": "Indonesia",
    "Latitude": -8.125,
    "Longitude": 114.042,
    "Elevation": 3332,
    "Type": "Stratovolcano",
    "VEI": 4,
    "Agent": "M",
    "Deaths": 1001
  },
  {
    "Year": 1640,
    "Name": "Komaga-take",
    "Location": "Hokkaido-Japan",
    "Country": "Japan",
    "Latitude": 42.07,
    "Longitude": 140.68,
    "Elevation": 1140,
    "Type": "Stratovolcano",
    "VEI": 5,
    "Agent": "W",
    "Deaths": 0
  },
  {
    "Year": 1640,
    "Name": "Tungurahua",
    "Location": "Ecuador",
    "Country": "Ecuador",
    "Latitude": -1.467,
    "Longitude": -78.442,
    "Elevation": 5023,
    "Type": "Stratovolcano",
    "VEI": 3,
    "Agent": "P",
    "Deaths": 5000
  },
  {
    "Year": 1646,
    "Name": "Makian",
    "Location": "Halmahera-Indonesia",
    "Country": "Indonesia",
    "Latitude": 0.32,
    "Longitude": 127.4,
    "Elevation": 1357,
    "Type": "Stratovolcano",
    "VEI": 4,
    "Agent": "P",
    "Deaths": 0
  },
  {
    "Year": 1650,
    "Name": "Santorini",
    "Location": "Greece",
    "Country": "Greece",
    "Latitude": 36.404,
    "Longitude": 25.396,
    "Elevation": 329,
    "Type": "Shield volcano",
    "VEI": 4,
    "Agent": "G,W,T",
    "Deaths": 120
  },
  {
    "Year": 1659,
    "Name": "San Salvador",
    "Location": "El Salvador",
    "Country": "El Salvador",
    "Latitude": 13.736,
    "Longitude": -89.286,
    "Elevation": 1893,
    "Type": "Stratovolcano",
    "VEI": 3,
    "Agent": "S",
    "Deaths": 0
  },
  {
    "Year": 1659,
    "Name": "Teon",
    "Location": "Banda Sea",
    "Country": "Pacific Ocean",
    "Latitude": -6.92,
    "Longitude": 129.125,
    "Elevation": 655,
    "Type": "Stratovolcano",
    "VEI": 4,
    "Agent": "",
    "Deaths": 0
  },
  {
    "Year": 1660,
    "Name": "Teon",
    "Location": "Banda Sea",
    "Country": "Pacific Ocean",
    "Latitude": -6.92,
    "Longitude": 129.125,
    "Elevation": 655,
    "Type": "Stratovolcano",
    "VEI": 4,
    "Agent": "G,T",
    "Deaths": 3
  },
  {
    "Year": 1660,
    "Name": "Katla",
    "Location": "Iceland-S",
    "Country": "Iceland",
    "Latitude": 63.63,
    "Longitude": -19.05,
    "Elevation": 1512,
    "Type": "Subglacial volcano",
    "VEI": 4,
    "Agent": "",
    "Deaths": 0
  },
  {
    "Year": 1660,
    "Name": "Long Island",
    "Location": "New Guinea-NE of",
    "Country": "Papua New Guinea",
    "Latitude": -5.358,
    "Longitude": 147.12,
    "Elevation": 1280,
    "Type": "Complex volcano",
    "VEI": 6,
    "Agent": "T,P,W,I",
    "Deaths": 2000
  },
  {
    "Year": 1663,
    "Name": "Usu",
    "Location": "Hokkaido-Japan",
    "Country": "Japan",
    "Latitude": 42.53,
    "Longitude": 140.83,
    "Elevation": 731,
    "Type": "Stratovolcano",
    "VEI": 5,
    "Agent": "T,P",
    "Deaths": 5
  },
  {
    "Year": 1664,
    "Name": "Unzen",
    "Location": "Kyushu-Japan",
    "Country": "Japan",
    "Latitude": 32.75,
    "Longitude": 130.3,
    "Elevation": 1500,
    "Type": "Complex volcano",
    "VEI": 2,
    "Agent": "m",
    "Deaths": 30
  },
  {
    "Year": 1664,
    "Name": "Iwo-Tori-shima",
    "Location": "Ryukyu Is",
    "Country": "Japan",
    "Latitude": 27.85,
    "Longitude": 128.25,
    "Elevation": 217,
    "Type": "Complex volcano",
    "VEI": null,
    "Agent": "A",
    "Deaths": 0
  },
  {
    "Year": 1669,
    "Name": "Etna",
    "Location": "Italy",
    "Country": "Italy",
    "Latitude": 37.734,
    "Longitude": 15.004,
    "Elevation": 3350,
    "Type": "Stratovolcano",
    "VEI": 3,
    "Agent": "",
    "Deaths": 0
  },
  {
    "Year": 1669,
    "Name": "Etna",
    "Location": "Italy",
    "Country": "Italy",
    "Latitude": 37.734,
    "Longitude": 15.004,
    "Elevation": 3350,
    "Type": "Stratovolcano",
    "VEI": 3,
    "Agent": "L",
    "Deaths": 2
  },
  {
    "Year": 1670,
    "Name": "Aoba",
    "Location": "Vanuatu-SW Pacific",
    "Country": "Vanuatu",
    "Latitude": -15.4,
    "Longitude": 167.83,
    "Elevation": 1496,
    "Type": "Shield volcano",
    "VEI": 2,
    "Agent": "L",
    "Deaths": 0
  },
  {
    "Year": 1672,
    "Name": "Fayal",
    "Location": "Azores",
    "Country": "Portugal",
    "Latitude": 38.6,
    "Longitude": -28.73,
    "Elevation": 1043,
    "Type": "Stratovolcano",
    "VEI": 2,
    "Agent": "",
    "Deaths": 3
  },
  {
    "Year": 1672,
    "Name": "Merapi",
    "Location": "Java",
    "Country": "Indonesia",
    "Latitude": -7.542,
    "Longitude": 110.442,
    "Elevation": 2947,
    "Type": "Stratovolcano",
    "VEI": 3,
    "Agent": "P",
    "Deaths": 3000
  },
  {
    "Year": 1673,
    "Name": "Gamkonora",
    "Location": "Halmahera-Indonesia",
    "Country": "Indonesia",
    "Latitude": 1.375,
    "Longitude": 127.52,
    "Elevation": 1635,
    "Type": "Stratovolcano",
    "VEI": 5,
    "Agent": "W",
    "Deaths": 0
  },
  {
    "Year": 1677,
    "Name": "La Palma",
    "Location": "Canary Is",
    "Country": "Spain",
    "Latitude": 28.58,
    "Longitude": -17.83,
    "Elevation": 2426,
    "Type": "Stratovolcano",
    "VEI": 2,
    "Agent": "G",
    "Deaths": 1
  },
  {
    "Year": 1679,
    "Name": "Zukur",
    "Location": "Red Sea",
    "Country": "Yemen",
    "Latitude": 14.02,
    "Longitude": 42.75,
    "Elevation": 624,
    "Type": "Shield volcano",
    "VEI": null,
    "Agent": "",
    "Deaths": 0
  },
  {
    "Year": 1682,
    "Name": "Vesuvius",
    "Location": "Italy",
    "Country": "Italy",
    "Latitude": 40.821,
    "Longitude": 14.426,
    "Elevation": 1281,
    "Type": "Complex volcano",
    "VEI": 3,
    "Agent": "",
    "Deaths": 4
  },
  {
    "Year": 1684,
    "Name": "Grimsvotn",
    "Location": "Iceland-NE",
    "Country": "Iceland",
    "Latitude": 64.42,
    "Longitude": -17.33,
    "Elevation": 1725,
    "Type": "Caldera",
    "VEI": 2,
    "Agent": "F",
    "Deaths": 1
  },
  {
    "Year": 1690,
    "Name": "Vesuvius",
    "Location": "Italy",
    "Country": "Italy",
    "Latitude": 40.821,
    "Longitude": 14.426,
    "Elevation": 1281,
    "Type": "Complex volcano",
    "VEI": null,
    "Agent": "",
    "Deaths": 0
  },
  {
    "Year": 1690,
    "Name": "Guntur",
    "Location": "Java",
    "Country": "Indonesia",
    "Latitude": -7.13,
    "Longitude": 107.83,
    "Elevation": 2249,
    "Type": "Complex volcano",
    "VEI": 3,
    "Agent": "",
    "Deaths": 0
  },
  {
    "Year": 1692,
    "Name": "Serua",
    "Location": "Banda Sea",
    "Country": "Pacific Ocean",
    "Latitude": -6.3,
    "Longitude": 130,
    "Elevation": 641,
    "Type": "Stratovolcano",
    "VEI": 4,
    "Agent": "L",
    "Deaths": 0
  },
  {
    "Year": 1693,
    "Name": "Etna",
    "Location": "Italy",
    "Country": "Italy",
    "Latitude": 37.734,
    "Longitude": 15.004,
    "Elevation": 3350,
    "Type": "Stratovolcano",
    "VEI": null,
    "Agent": "",
    "Deaths": 0
  },
  {
    "Year": 1693,
    "Name": "Hekla",
    "Location": "Iceland-S",
    "Country": "Iceland",
    "Latitude": 63.98,
    "Longitude": -19.7,
    "Elevation": 1491,
    "Type": "Stratovolcano",
    "VEI": 4,
    "Agent": "",
    "Deaths": 0
  },
  {
    "Year": 1694,
    "Name": "Banda Api",
    "Location": "Banda Sea",
    "Country": "Pacific Ocean",
    "Latitude": -4.525,
    "Longitude": 129.871,
    "Elevation": 640,
    "Type": "Caldera",
    "VEI": 3,
    "Agent": "",
    "Deaths": 0
  },
  {
    "Year": 1698,
    "Name": "Vesuvius",
    "Location": "Italy",
    "Country": "Italy",
    "Latitude": 40.821,
    "Longitude": 14.426,
    "Elevation": 1281,
    "Type": "Complex volcano",
    "VEI": 3,
    "Agent": "",
    "Deaths": 0
  },
  {
    "Year": 1698,
    "Name": "Cotopaxi",
    "Location": "Ecuador",
    "Country": "Ecuador",
    "Latitude": -0.677,
    "Longitude": -78.436,
    "Elevation": 5911,
    "Type": "Stratovolcano",
    "VEI": 3,
    "Agent": "M",
    "Deaths": 0
  },
  {
    "Year": 1698,
    "Name": "Cereme",
    "Location": "Java",
    "Country": "Indonesia",
    "Latitude": -6.892,
    "Longitude": 108.4,
    "Elevation": 3078,
    "Type": "Stratovolcano",
    "VEI": 3,
    "Agent": "",
    "Deaths": 0
  },
  {
    "Year": 1706,
    "Name": "Tenerife",
    "Location": "Canary Is",
    "Country": "Spain",
    "Latitude": 28.271,
    "Longitude": -16.641,
    "Elevation": 3715,
    "Type": "Stratovolcano",
    "VEI": 2,
    "Agent": "",
    "Deaths": 0
  },
  {
    "Year": 1707,
    "Name": "Santorini",
    "Location": "Greece",
    "Country": "Greece",
    "Latitude": 36.404,
    "Longitude": 25.396,
    "Elevation": 329,
    "Type": "Shield volcano",
    "VEI": null,
    "Agent": "",
    "Deaths": 0
  },
  {
    "Year": 1707,
    "Name": "Fuji",
    "Location": "Honshu-Japan",
    "Country": "Japan",
    "Latitude": 35.35,
    "Longitude": 138.73,
    "Elevation": 3776,
    "Type": "Stratovolcano",
    "VEI": 4,
    "Agent": "",
    "Deaths": 0
  },
  {
    "Year": 1711,
    "Name": "Awu",
    "Location": "Sangihe Is-Indonesia",
    "Country": "Indonesia",
    "Latitude": 3.67,
    "Longitude": 125.5,
    "Elevation": 1320,
    "Type": "Stratovolcano",
    "VEI": 3,
    "Agent": "P",
    "Deaths": 3000
  },
  {
    "Year": 1712,
    "Name": "Bardarbunga",
    "Location": "Iceland-NE",
    "Country": "Iceland",
    "Latitude": 64.63,
    "Longitude": -17.53,
    "Elevation": 2000,
    "Type": "Stratovolcano",
    "VEI": 2,
    "Agent": "",
    "Deaths": 0
  },
  {
    "Year": 1714,
    "Name": "Vesuvius",
    "Location": "Italy",
    "Country": "Italy",
    "Latitude": 40.821,
    "Longitude": 14.426,
    "Elevation": 1281,
    "Type": "Complex volcano",
    "VEI": null,
    "Agent": "",
    "Deaths": 0
  },
  {
    "Year": 1716,
    "Name": "Kelut",
    "Location": "Java",
    "Country": "Indonesia",
    "Latitude": -7.93,
    "Longitude": 112.308,
    "Elevation": 1731,
    "Type": "Stratovolcano",
    "VEI": 2,
    "Agent": "M",
    "Deaths": 0
  },
  {
    "Year": 1716,
    "Name": "Taal",
    "Location": "Luzon-Philippines",
    "Country": "Philippines",
    "Latitude": 14.002,
    "Longitude": 120.993,
    "Elevation": 400,
    "Type": "Stratovolcano",
    "VEI": 4,
    "Agent": "",
    "Deaths": 0
  },
  {
    "Year": 1716,
    "Name": "Bardarbunga",
    "Location": "Iceland-NE",
    "Country": "Iceland",
    "Latitude": 64.63,
    "Longitude": -17.53,
    "Elevation": 2000,
    "Type": "Stratovolcano",
    "VEI": 2,
    "Agent": "",
    "Deaths": 0
  },
  {
    "Year": 1716,
    "Name": "Kirishima",
    "Location": "Kyushu-Japan",
    "Country": "Japan",
    "Latitude": 31.93,
    "Longitude": 130.87,
    "Elevation": 1700,
    "Type": "Shield volcano",
    "VEI": 3,
    "Agent": "",
    "Deaths": 1
  },
  {
    "Year": 1717,
    "Name": "Kirishima",
    "Location": "Kyushu-Japan",
    "Country": "Japan",
    "Latitude": 31.93,
    "Longitude": 130.87,
    "Elevation": 1700,
    "Type": "Shield volcano",
    "VEI": 3,
    "Agent": "",
    "Deaths": 1
  },
  {
    "Year": 1717,
    "Name": "Bardarbunga",
    "Location": "Iceland-NE",
    "Country": "Iceland",
    "Latitude": 64.63,
    "Longitude": -17.53,
    "Elevation": 2000,
    "Type": "Stratovolcano",
    "VEI": 3,
    "Agent": "",
    "Deaths": 0
  },
  {
    "Year": 1717,
    "Name": "Fuego",
    "Location": "Guatemala",
    "Country": "Guatemala",
    "Latitude": 14.473,
    "Longitude": -90.88,
    "Elevation": 3763,
    "Type": "Stratovolcano",
    "VEI": 3,
    "Agent": "",
    "Deaths": 0
  },
  {
    "Year": 1718,
    "Name": "Pico",
    "Location": "Azores",
    "Country": "Portugal",
    "Latitude": 38.47,
    "Longitude": -28.4,
    "Elevation": 2351,
    "Type": "Stratovolcano",
    "VEI": 2,
    "Agent": "",
    "Deaths": 2
  },
  {
    "Year": 1721,
    "Name": "Katla",
    "Location": "Iceland-S",
    "Country": "Iceland",
    "Latitude": 63.63,
    "Longitude": -19.05,
    "Elevation": 1512,
    "Type": "Subglacial volcano",
    "VEI": 5,
    "Agent": "",
    "Deaths": 0
  },
  {
    "Year": 1721,
    "Name": "Asama",
    "Location": "Honshu-Japan",
    "Country": "Japan",
    "Latitude": 36.4,
    "Longitude": 138.53,
    "Elevation": 2560,
    "Type": "Complex volcano",
    "VEI": 1,
    "Agent": "T",
    "Deaths": 15
  },
  {
    "Year": 1726,
    "Name": "Bardarbunga",
    "Location": "Iceland-NE",
    "Country": "Iceland",
    "Latitude": 64.63,
    "Longitude": -17.53,
    "Elevation": 2000,
    "Type": "Stratovolcano",
    "VEI": 1,
    "Agent": "",
    "Deaths": 0
  },
  {
    "Year": 1727,
    "Name": "Oraefajokull",
    "Location": "Iceland-SE",
    "Country": "Iceland",
    "Latitude": 64,
    "Longitude": -16.65,
    "Elevation": 2119,
    "Type": "Stratovolcano",
    "VEI": 4,
    "Agent": "F",
    "Deaths": 3
  },
  {
    "Year": 1729,
    "Name": "Bardarbunga",
    "Location": "Iceland-NE",
    "Country": "Iceland",
    "Latitude": 64.63,
    "Longitude": -17.53,
    "Elevation": 2000,
    "Type": "Stratovolcano",
    "VEI": 1,
    "Agent": "",
    "Deaths": 0
  },
  {
    "Year": 1729,
    "Name": "Krafla",
    "Location": "Iceland-NE",
    "Country": "Iceland",
    "Latitude": 65.73,
    "Longitude": -16.78,
    "Elevation": 650,
    "Type": "Caldera",
    "VEI": 2,
    "Agent": "",
    "Deaths": 0
  },
  {
    "Year": 1730,
    "Name": "Lanzarote",
    "Location": "Canary Is",
    "Country": "Spain",
    "Latitude": 29.03,
    "Longitude": -13.63,
    "Elevation": 670,
    "Type": "Fissure vent",
    "VEI": 2,
    "Agent": "",
    "Deaths": 0
  },
  {
    "Year": 1730,
    "Name": "Tseax River Cone",
    "Location": "Canada",
    "Country": "Canada",
    "Latitude": 55.12,
    "Longitude": -128.9,
    "Elevation": 609,
    "Type": "Pyroclastic cone",
    "VEI": null,
    "Agent": "G",
    "Deaths": 0
  },
  {
    "Year": 1730,
    "Name": "Raung",
    "Location": "Java",
    "Country": "Indonesia",
    "Latitude": -8.125,
    "Longitude": 114.042,
    "Elevation": 3332,
    "Type": "Stratovolcano",
    "VEI": 3,
    "Agent": "M,T",
    "Deaths": 0
  },
  {
    "Year": 1737,
    "Name": "Vesuvius",
    "Location": "Italy",
    "Country": "Italy",
    "Latitude": 40.821,
    "Longitude": 14.426,
    "Elevation": 1281,
    "Type": "Complex volcano",
    "VEI": 2,
    "Agent": "T",
    "Deaths": 2
  },
  {
    "Year": 1741,
    "Name": "Oshima-Oshima",
    "Location": "Hokkaido-Japan",
    "Country": "Japan",
    "Latitude": 41.5,
    "Longitude": 139.37,
    "Elevation": 737,
    "Type": "Stratovolcano",
    "VEI": 4,
    "Agent": "W,S",
    "Deaths": 0
  },
  {
    "Year": 1742,
    "Name": "Cotopaxi",
    "Location": "Ecuador",
    "Country": "Ecuador",
    "Latitude": -0.677,
    "Longitude": -78.436,
    "Elevation": 5911,
    "Type": "Stratovolcano",
    "VEI": 3,
    "Agent": "M",
    "Deaths": 0
  },
  {
    "Year": 1742,
    "Name": "Cotopaxi",
    "Location": "Ecuador",
    "Country": "Ecuador",
    "Latitude": -0.677,
    "Longitude": -78.436,
    "Elevation": 5911,
    "Type": "Stratovolcano",
    "VEI": 3,
    "Agent": "M",
    "Deaths": 0
  },
  {
    "Year": 1749,
    "Name": "Taal",
    "Location": "Luzon-Philippines",
    "Country": "Philippines",
    "Latitude": 14.002,
    "Longitude": 120.993,
    "Elevation": 400,
    "Type": "Stratovolcano",
    "VEI": 3,
    "Agent": "",
    "Deaths": 0
  },
  {
    "Year": 1753,
    "Name": "Grimsvotn",
    "Location": "Iceland-NE",
    "Country": "Iceland",
    "Latitude": 64.42,
    "Longitude": -17.33,
    "Elevation": 1725,
    "Type": "Caldera",
    "VEI": 2,
    "Agent": "",
    "Deaths": 0
  },
  {
    "Year": 1754,
    "Name": "Taal",
    "Location": "Luzon-Philippines",
    "Country": "Philippines",
    "Latitude": 14.002,
    "Longitude": 120.993,
    "Elevation": 400,
    "Type": "Stratovolcano",
    "VEI": 4,
    "Agent": "W,T",
    "Deaths": 12
  },
  {
    "Year": 1755,
    "Name": "Katla",
    "Location": "Iceland-S",
    "Country": "Iceland",
    "Latitude": 63.63,
    "Longitude": -19.05,
    "Elevation": 1512,
    "Type": "Subglacial volcano",
    "VEI": 4,
    "Agent": "E",
    "Deaths": 2
  },
  {
    "Year": 1757,
    "Name": "San Jorge",
    "Location": "Azores",
    "Country": "Portugal",
    "Latitude": 38.65,
    "Longitude": -28.08,
    "Elevation": 1053,
    "Type": "Fissure vent",
    "VEI": 0,
    "Agent": "S",
    "Deaths": 0
  },
  {
    "Year": 1760,
    "Name": "Makian",
    "Location": "Halmahera-Indonesia",
    "Country": "Indonesia",
    "Latitude": 0.32,
    "Longitude": 127.4,
    "Elevation": 1357,
    "Type": "Stratovolcano",
    "VEI": 4,
    "Agent": "M",
    "Deaths": 2000
  },
  {
    "Year": 1762,
    "Name": "Kliuchevskoi",
    "Location": "Kamchatka",
    "Country": "Russia",
    "Latitude": 56.057,
    "Longitude": 160.638,
    "Elevation": 4835,
    "Type": "Stratovolcano",
    "VEI": 2,
    "Agent": "",
    "Deaths": 0
  },
  {
    "Year": 1766,
    "Name": "Hekla",
    "Location": "Iceland-S",
    "Country": "Iceland",
    "Latitude": 63.98,
    "Longitude": -19.7,
    "Elevation": 1491,
    "Type": "Stratovolcano",
    "VEI": 4,
    "Agent": "",
    "Deaths": 0
  },
  {
    "Year": 1766,
    "Name": "Mayon",
    "Location": "Luzon-Philippines",
    "Country": "Philippines",
    "Latitude": 13.257,
    "Longitude": 123.685,
    "Elevation": 2462,
    "Type": "Stratovolcano",
    "VEI": 3,
    "Agent": "m",
    "Deaths": 49
  },
  {
    "Year": 1768,
    "Name": "Cotopaxi",
    "Location": "Ecuador",
    "Country": "Ecuador",
    "Latitude": -0.677,
    "Longitude": -78.436,
    "Elevation": 5911,
    "Type": "Stratovolcano",
    "VEI": 4,
    "Agent": "M",
    "Deaths": 0
  },
  {
    "Year": 1772,
    "Name": "Gamalama",
    "Location": "Halmahera-Indonesia",
    "Country": "Indonesia",
    "Latitude": 0.8,
    "Longitude": 127.325,
    "Elevation": 1715,
    "Type": "Stratovolcano",
    "VEI": 3,
    "Agent": "T",
    "Deaths": 35
  },
  {
    "Year": 1772,
    "Name": "Papandayan",
    "Location": "Java",
    "Country": "Indonesia",
    "Latitude": -7.32,
    "Longitude": 107.73,
    "Elevation": 2665,
    "Type": "Stratovolcano",
    "VEI": 3,
    "Agent": "A",
    "Deaths": 2957
  },
  {
    "Year": 1773,
    "Name": "Gamalama",
    "Location": "Halmahera-Indonesia",
    "Country": "Indonesia",
    "Latitude": 0.8,
    "Longitude": 127.325,
    "Elevation": 1715,
    "Type": "Stratovolcano",
    "VEI": 2,
    "Agent": "I",
    "Deaths": 0
  },
  {
    "Year": 1775,
    "Name": "Lokon-Empung",
    "Location": "Sulawesi-Indonesia",
    "Country": "Indonesia",
    "Latitude": 1.358,
    "Longitude": 124.792,
    "Elevation": 1580,
    "Type": "Stratovolcano",
    "VEI": 3,
    "Agent": "",
    "Deaths": 0
  },
  {
    "Year": 1775,
    "Name": "Gamalama",
    "Location": "Halmahera-Indonesia",
    "Country": "Indonesia",
    "Latitude": 0.8,
    "Longitude": 127.325,
    "Elevation": 1715,
    "Type": "Stratovolcano",
    "VEI": 3,
    "Agent": "P,I",
    "Deaths": 1300
  },
  {
    "Year": 1778,
    "Name": "Raikoke",
    "Location": "Kuril Is",
    "Country": "Russia",
    "Latitude": 48.292,
    "Longitude": 153.25,
    "Elevation": 551,
    "Type": "Stratovolcano",
    "VEI": 4,
    "Agent": "T",
    "Deaths": 15
  },
  {
    "Year": 1779,
    "Name": "Vesuvius",
    "Location": "Italy",
    "Country": "Italy",
    "Latitude": 40.821,
    "Longitude": 14.426,
    "Elevation": 1281,
    "Type": "Complex volcano",
    "VEI": 2,
    "Agent": "",
    "Deaths": 0
  },
  {
    "Year": 1779,
    "Name": "Sakura-jima",
    "Location": "Kyushu-Japan",
    "Country": "Japan",
    "Latitude": 31.58,
    "Longitude": 130.67,
    "Elevation": 1117,
    "Type": "Stratovolcano",
    "VEI": 4,
    "Agent": "T,W,I",
    "Deaths": 153
  },
  {
    "Year": 1780,
    "Name": "Sakura-jima",
    "Location": "Kyushu-Japan",
    "Country": "Japan",
    "Latitude": 31.58,
    "Longitude": 130.67,
    "Elevation": 1117,
    "Type": "Stratovolcano",
    "VEI": 4,
    "Agent": "F",
    "Deaths": 0
  },
  {
    "Year": 1780,
    "Name": "Aoga-shima",
    "Location": "Izu Is-Japan",
    "Country": "Japan",
    "Latitude": 32.45,
    "Longitude": 139.77,
    "Elevation": 423,
    "Type": "Stratovolcano",
    "VEI": 3,
    "Agent": "",
    "Deaths": 7
  },
  {
    "Year": 1780,
    "Name": "Sakura-jima",
    "Location": "Kyushu-Japan",
    "Country": "Japan",
    "Latitude": 31.58,
    "Longitude": 130.67,
    "Elevation": 1117,
    "Type": "Stratovolcano",
    "VEI": 4,
    "Agent": "",
    "Deaths": 0
  },
  {
    "Year": 1780,
    "Name": "Sakura-jima",
    "Location": "Kyushu-Japan",
    "Country": "Japan",
    "Latitude": 31.58,
    "Longitude": 130.67,
    "Elevation": 1117,
    "Type": "Stratovolcano",
    "VEI": null,
    "Agent": "",
    "Deaths": 0
  },
  {
    "Year": 1781,
    "Name": "Sakura-jima",
    "Location": "Kyushu-Japan",
    "Country": "Japan",
    "Latitude": 31.58,
    "Longitude": 130.67,
    "Elevation": 1117,
    "Type": "Stratovolcano",
    "VEI": 4,
    "Agent": "W",
    "Deaths": 23
  },
  {
    "Year": 1783,
    "Name": "Asama",
    "Location": "Honshu-Japan",
    "Country": "Japan",
    "Latitude": 36.4,
    "Longitude": 138.53,
    "Elevation": 2560,
    "Type": "Complex volcano",
    "VEI": 4,
    "Agent": "F,P,I",
    "Deaths": 1491
  },
  {
    "Year": 1784,
    "Name": "Grimsvotn",
    "Location": "Iceland-NE",
    "Country": "Iceland",
    "Latitude": 64.42,
    "Longitude": -17.33,
    "Elevation": 1725,
    "Type": "Caldera",
    "VEI": 4,
    "Agent": "I",
    "Deaths": 0
  },
  {
    "Year": 1784,
    "Name": "Sabancaya",
    "Location": "Peru",
    "Country": "Peru",
    "Latitude": -15.78,
    "Longitude": -71.85,
    "Elevation": 5967,
    "Type": "Stratovolcano",
    "VEI": null,
    "Agent": "",
    "Deaths": 0
  },
  {
    "Year": 1784,
    "Name": "Hualalai",
    "Location": "Hawaiian Is",
    "Country": "United States",
    "Latitude": 19.692,
    "Longitude": -155.87,
    "Elevation": 2523,
    "Type": "Shield volcano",
    "VEI": 0,
    "Agent": "L",
    "Deaths": 0
  },
  {
    "Year": 1785,
    "Name": "Aoga-shima",
    "Location": "Izu Is-Japan",
    "Country": "Japan",
    "Latitude": 32.45,
    "Longitude": 139.77,
    "Elevation": 423,
    "Type": "Stratovolcano",
    "VEI": 3,
    "Agent": "",
    "Deaths": 135
  },
  {
    "Year": 1786,
    "Name": "Dieng Volc Complex",
    "Location": "Java",
    "Country": "Indonesia",
    "Latitude": -7.2,
    "Longitude": 109.92,
    "Elevation": 2565,
    "Type": "Complex volcano",
    "VEI": 2,
    "Agent": "A",
    "Deaths": 38
  },
  {
    "Year": 1789,
    "Name": "Oshima",
    "Location": "Izu Is-Japan",
    "Country": "Japan",
    "Latitude": 34.73,
    "Longitude": 139.38,
    "Elevation": 758,
    "Type": "Stratovolcano",
    "VEI": 2,
    "Agent": "T",
    "Deaths": 0
  },
  {
    "Year": 1790,
    "Name": "Kilauea",
    "Location": "Hawaiian Is",
    "Country": "United States",
    "Latitude": 19.425,
    "Longitude": -155.292,
    "Elevation": 1222,
    "Type": "Shield volcano",
    "VEI": 4,
    "Agent": "P",
    "Deaths": 5405
  },
  {
    "Year": 1792,
    "Name": "Unzen",
    "Location": "Kyushu-Japan",
    "Country": "Japan",
    "Latitude": 32.75,
    "Longitude": 130.3,
    "Elevation": 1500,
    "Type": "Complex volcano",
    "VEI": 2,
    "Agent": "W,A",
    "Deaths": 0
  },
  {
    "Year": 1794,
    "Name": "Vesuvius",
    "Location": "Italy",
    "Country": "Italy",
    "Latitude": 40.821,
    "Longitude": 14.426,
    "Elevation": 1281,
    "Type": "Complex volcano",
    "VEI": 3,
    "Agent": "M,L,T,G",
    "Deaths": 400
  },
  {
    "Year": 1800,
    "Name": "San Jorge",
    "Location": "Azores",
    "Country": "Portugal",
    "Latitude": 38.65,
    "Longitude": -28.08,
    "Elevation": 1053,
    "Type": "Fissure vent",
    "VEI": 1,
    "Agent": "L",
    "Deaths": 9
  },
  {
    "Year": 1800,
    "Name": "Guntur",
    "Location": "Java",
    "Country": "Indonesia",
    "Latitude": -7.13,
    "Longitude": 107.83,
    "Elevation": 2249,
    "Type": "Complex volcano",
    "VEI": null,
    "Agent": "M",
    "Deaths": 0
  },
  {
    "Year": 1800,
    "Name": "Mayon",
    "Location": "Luzon-Philippines",
    "Country": "Philippines",
    "Latitude": 13.257,
    "Longitude": 123.685,
    "Elevation": 2462,
    "Type": "Stratovolcano",
    "VEI": 2,
    "Agent": "",
    "Deaths": 0
  },
  {
    "Year": 1800,
    "Name": "St. Helens",
    "Location": "US-Washington",
    "Country": "United States",
    "Latitude": 46.2,
    "Longitude": -122.18,
    "Elevation": 2549,
    "Type": "Stratovolcano",
    "VEI": 5,
    "Agent": "I",
    "Deaths": 0
  },
  {
    "Year": 1800,
    "Name": "Hualalai",
    "Location": "Hawaiian Is",
    "Country": "United States",
    "Latitude": 19.692,
    "Longitude": -155.87,
    "Elevation": 2523,
    "Type": "Shield volcano",
    "VEI": 0,
    "Agent": "L",
    "Deaths": 2
  },
  {
    "Year": 1800,
    "Name": "Kieyo",
    "Location": "Africa-E",
    "Country": "Tanzania",
    "Latitude": -9.23,
    "Longitude": 33.78,
    "Elevation": 2175,
    "Type": "Stratovolcano",
    "VEI": 2,
    "Agent": "L",
    "Deaths": 0
  },
  {
    "Year": 1801,
    "Name": "Chokai",
    "Location": "Honshu-Japan",
    "Country": "Japan",
    "Latitude": 39.08,
    "Longitude": 140.03,
    "Elevation": 2237,
    "Type": "Stratovolcano",
    "VEI": 2,
    "Agent": "T",
    "Deaths": 8
  },
  {
    "Year": 1803,
    "Name": "Asama",
    "Location": "Honshu-Japan",
    "Country": "Japan",
    "Latitude": 36.4,
    "Longitude": 138.53,
    "Elevation": 2560,
    "Type": "Complex volcano",
    "VEI": 2,
    "Agent": "",
    "Deaths": 0
  },
  {
    "Year": 1803,
    "Name": "Asama",
    "Location": "Honshu-Japan",
    "Country": "Japan",
    "Latitude": 36.4,
    "Longitude": 138.53,
    "Elevation": 2560,
    "Type": "Complex volcano",
    "VEI": 2,
    "Agent": "",
    "Deaths": 0
  },
  {
    "Year": 1804,
    "Name": "Shikotsu",
    "Location": "Hokkaido-Japan",
    "Country": "Japan",
    "Latitude": 42.7,
    "Longitude": 141.33,
    "Elevation": 1320,
    "Type": "Caldera",
    "VEI": 3,
    "Agent": "",
    "Deaths": 0
  },
  {
    "Year": 1805,
    "Name": "Vesuvius",
    "Location": "Italy",
    "Country": "Italy",
    "Latitude": 40.821,
    "Longitude": 14.426,
    "Elevation": 1281,
    "Type": "Complex volcano",
    "VEI": 2,
    "Agent": "",
    "Deaths": 4
  },
  {
    "Year": 1812,
    "Name": "Soufriere St. Vincent",
    "Location": "W Indies",
    "Country": "St. Vincent & the Grenadines",
    "Latitude": 13.33,
    "Longitude": -61.18,
    "Elevation": 1220,
    "Type": "Stratovolcano",
    "VEI": 4,
    "Agent": "T, m",
    "Deaths": 56
  },
  {
    "Year": 1812,
    "Name": "Awu",
    "Location": "Sangihe Is-Indonesia",
    "Country": "Indonesia",
    "Latitude": 3.67,
    "Longitude": 125.5,
    "Elevation": 1320,
    "Type": "Stratovolcano",
    "VEI": 3,
    "Agent": "P,M",
    "Deaths": 953
  },
  {
    "Year": 1813,
    "Name": "Vesuvius",
    "Location": "Italy",
    "Country": "Italy",
    "Latitude": 40.821,
    "Longitude": 14.426,
    "Elevation": 1281,
    "Type": "Complex volcano",
    "VEI": 2,
    "Agent": "",
    "Deaths": 0
  },
  {
    "Year": 1814,
    "Name": "Mayon",
    "Location": "Luzon-Philippines",
    "Country": "Philippines",
    "Latitude": 13.257,
    "Longitude": 123.685,
    "Elevation": 2462,
    "Type": "Stratovolcano",
    "VEI": 4,
    "Agent": "P,M,E",
    "Deaths": 1200
  },
  {
    "Year": 1815,
    "Name": "Tambora",
    "Location": "Lesser Sunda Is",
    "Country": "Indonesia",
    "Latitude": -8.25,
    "Longitude": 118,
    "Elevation": 2850,
    "Type": "Stratovolcano",
    "VEI": 7,
    "Agent": "P,W,A,I",
    "Deaths": 11000
  },
  {
    "Year": 1816,
    "Name": "Aso",
    "Location": "Kyushu-Japan",
    "Country": "Japan",
    "Latitude": 32.88,
    "Longitude": 131.1,
    "Elevation": 1592,
    "Type": "Caldera",
    "VEI": 2,
    "Agent": "T",
    "Deaths": 1
  },
  {
    "Year": 1817,
    "Name": "Ijen",
    "Location": "Java",
    "Country": "Indonesia",
    "Latitude": -8.058,
    "Longitude": 114.242,
    "Elevation": 2799,
    "Type": "Stratovolcano",
    "VEI": 2,
    "Agent": "M",
    "Deaths": 0
  },
  {
    "Year": 1817,
    "Name": "Raung",
    "Location": "Java",
    "Country": "Indonesia",
    "Latitude": -8.125,
    "Longitude": 114.042,
    "Elevation": 3332,
    "Type": "Stratovolcano",
    "VEI": 4,
    "Agent": "",
    "Deaths": 0
  },
  {
    "Year": 1818,
    "Name": "Colima",
    "Location": "Mexico",
    "Country": "Mexico",
    "Latitude": 19.514,
    "Longitude": -103.62,
    "Elevation": 3850,
    "Type": "Stratovolcano",
    "VEI": 4,
    "Agent": "",
    "Deaths": 0
  },
  {
    "Year": 1819,
    "Name": "Asuncion",
    "Location": "Mariana Is-C Pacific",
    "Country": "United States",
    "Latitude": 19.67,
    "Longitude": 145.4,
    "Elevation": 857,
    "Type": "Stratovolcano",
    "VEI": null,
    "Agent": "",
    "Deaths": 0
  },
  {
    "Year": 1820,
    "Name": "Westdahl",
    "Location": "Aleutian Is",
    "Country": "United States",
    "Latitude": 54.52,
    "Longitude": -164.65,
    "Elevation": 1654,
    "Type": "Stratovolcano",
    "VEI": 2,
    "Agent": "",
    "Deaths": 0
  },
  {
    "Year": 1820,
    "Name": "Banda Api",
    "Location": "Banda Sea",
    "Country": "Pacific Ocean",
    "Latitude": -4.525,
    "Longitude": 129.871,
    "Elevation": 640,
    "Type": "Caldera",
    "VEI": 2,
    "Agent": "",
    "Deaths": 0
  },
  {
    "Year": 1822,
    "Name": "Usu",
    "Location": "Hokkaido-Japan",
    "Country": "Japan",
    "Latitude": 42.53,
    "Longitude": 140.83,
    "Elevation": 731,
    "Type": "Stratovolcano",
    "VEI": 4,
    "Agent": "P",
    "Deaths": 50
  },
  {
    "Year": 1822,
    "Name": "Galunggung",
    "Location": "Java",
    "Country": "Indonesia",
    "Latitude": -7.25,
    "Longitude": 108.05,
    "Elevation": 2168,
    "Type": "Stratovolcano",
    "VEI": 5,
    "Agent": "P,M",
    "Deaths": 4011
  },
  {
    "Year": 1822,
    "Name": "Merapi",
    "Location": "Java",
    "Country": "Indonesia",
    "Latitude": -7.542,
    "Longitude": 110.442,
    "Elevation": 2947,
    "Type": "Stratovolcano",
    "VEI": 3,
    "Agent": "",
    "Deaths": 100
  },
  {
    "Year": 1823,
    "Name": "Kilauea",
    "Location": "Hawaiian Is",
    "Country": "United States",
    "Latitude": 19.425,
    "Longitude": -155.292,
    "Elevation": 1222,
    "Type": "Shield volcano",
    "VEI": 0,
    "Agent": "L",
    "Deaths": 0
  },
  {
    "Year": 1825,
    "Name": "Shishaldin",
    "Location": "Aleutian Is",
    "Country": "United States",
    "Latitude": 54.75,
    "Longitude": -163.97,
    "Elevation": 2857,
    "Type": "Stratovolcano",
    "VEI": 3,
    "Agent": "",
    "Deaths": 0
  },
  {
    "Year": 1825,
    "Name": "Balbi",
    "Location": "Bougainville-SW Paci",
    "Country": "Papua New Guinea",
    "Latitude": -5.83,
    "Longitude": 154.98,
    "Elevation": 2715,
    "Type": "Stratovolcano",
    "VEI": null,
    "Agent": "P",
    "Deaths": 0
  },
  {
    "Year": 1826,
    "Name": "Kelut",
    "Location": "Java",
    "Country": "Indonesia",
    "Latitude": -7.93,
    "Longitude": 112.308,
    "Elevation": 1731,
    "Type": "Stratovolcano",
    "VEI": 3,
    "Agent": "M",
    "Deaths": 0
  },
  {
    "Year": 1826,
    "Name": "Dieng Volc Complex",
    "Location": "Java",
    "Country": "Indonesia",
    "Latitude": -7.2,
    "Longitude": 109.92,
    "Elevation": 2565,
    "Type": "Complex volcano",
    "VEI": 2,
    "Agent": "",
    "Deaths": 0
  },
  {
    "Year": 1826,
    "Name": "Aso",
    "Location": "Kyushu-Japan",
    "Country": "Japan",
    "Latitude": 32.88,
    "Longitude": 131.1,
    "Elevation": 1592,
    "Type": "Caldera",
    "VEI": 2,
    "Agent": "T",
    "Deaths": 0
  },
  {
    "Year": 1827,
    "Name": "Avachinsky",
    "Location": "Kamchatka",
    "Country": "Russia",
    "Latitude": 53.255,
    "Longitude": 158.83,
    "Elevation": 2741,
    "Type": "Stratovolcano",
    "VEI": 2,
    "Agent": "",
    "Deaths": 0
  },
  {
    "Year": 1827,
    "Name": "Avachinsky",
    "Location": "Kamchatka",
    "Country": "Russia",
    "Latitude": 53.255,
    "Longitude": 158.83,
    "Elevation": 2741,
    "Type": "Stratovolcano",
    "VEI": 2,
    "Agent": "",
    "Deaths": 0
  },
  {
    "Year": 1829,
    "Name": "Guntur",
    "Location": "Java",
    "Country": "Indonesia",
    "Latitude": -7.13,
    "Longitude": 107.83,
    "Elevation": 2249,
    "Type": "Complex volcano",
    "VEI": 2,
    "Agent": "",
    "Deaths": 0
  },
  {
    "Year": 1832,
    "Name": "Etna",
    "Location": "Italy",
    "Country": "Italy",
    "Latitude": 37.734,
    "Longitude": 15.004,
    "Elevation": 3350,
    "Type": "Stratovolcano",
    "VEI": 2,
    "Agent": "L",
    "Deaths": 0
  },
  {
    "Year": 1832,
    "Name": "Merapi",
    "Location": "Java",
    "Country": "Indonesia",
    "Latitude": -7.542,
    "Longitude": 110.442,
    "Elevation": 2947,
    "Type": "Stratovolcano",
    "VEI": 3,
    "Agent": "",
    "Deaths": 32
  },
  {
    "Year": 1833,
    "Name": "Kaba",
    "Location": "Sumatra",
    "Country": "Indonesia",
    "Latitude": -3.52,
    "Longitude": 102.62,
    "Elevation": 1952,
    "Type": "Stratovolcano",
    "VEI": 2,
    "Agent": "M",
    "Deaths": 126
  },
  {
    "Year": 1835,
    "Name": "Cosiguina",
    "Location": "Nicaragua",
    "Country": "Nicaragua",
    "Latitude": 12.98,
    "Longitude": -87.57,
    "Elevation": 872,
    "Type": "Stratovolcano",
    "VEI": 5,
    "Agent": "G,I",
    "Deaths": 0
  },
  {
    "Year": 1835,
    "Name": "Banda Api",
    "Location": "Banda Sea",
    "Country": "Pacific Ocean",
    "Latitude": -4.525,
    "Longitude": 129.871,
    "Elevation": 640,
    "Type": "Caldera",
    "VEI": null,
    "Agent": "",
    "Deaths": 0
  },
  {
    "Year": 1837,
    "Name": "Peuet Sague",
    "Location": "Sumatra",
    "Country": "Indonesia",
    "Latitude": 4.914,
    "Longitude": 96.329,
    "Elevation": 2801,
    "Type": "Complex volcano",
    "VEI": null,
    "Agent": "",
    "Deaths": 0
  },
  {
    "Year": 1838,
    "Name": "Gamalama",
    "Location": "Halmahera-Indonesia",
    "Country": "Indonesia",
    "Latitude": 0.8,
    "Longitude": 127.325,
    "Elevation": 1715,
    "Type": "Stratovolcano",
    "VEI": 2,
    "Agent": "T",
    "Deaths": 4
  },
  {
    "Year": 1839,
    "Name": "Unnamed",
    "Location": "Chile-Is",
    "Country": "Chile",
    "Latitude": -33.62,
    "Longitude": -76.83,
    "Elevation": -642,
    "Type": "Submarine volcano",
    "VEI": 2,
    "Agent": "",
    "Deaths": 0
  },
  {
    "Year": 1840,
    "Name": "Gamalama",
    "Location": "Halmahera-Indonesia",
    "Country": "Indonesia",
    "Latitude": 0.8,
    "Longitude": 127.325,
    "Elevation": 1715,
    "Type": "Stratovolcano",
    "VEI": 2,
    "Agent": "",
    "Deaths": 0
  },
  {
    "Year": 1840,
    "Name": "Kilauea",
    "Location": "Hawaiian Is",
    "Country": "United States",
    "Latitude": 19.425,
    "Longitude": -155.292,
    "Elevation": 1222,
    "Type": "Shield volcano",
    "VEI": 0,
    "Agent": "",
    "Deaths": 0
  },
  {
    "Year": 1840,
    "Name": "Ararat",
    "Location": "Turkey",
    "Country": "Turkey",
    "Latitude": 39.7,
    "Longitude": 44.28,
    "Elevation": 5165,
    "Type": "Stratovolcano",
    "VEI": 3,
    "Agent": "P",
    "Deaths": 1900
  },
  {
    "Year": 1840,
    "Name": "Savo",
    "Location": "Solomon Is-SW Pacifi",
    "Country": "Solomon Is.",
    "Latitude": -9.13,
    "Longitude": 159.82,
    "Elevation": 510,
    "Type": "Stratovolcano",
    "VEI": 3,
    "Agent": "P",
    "Deaths": 0
  },
  {
    "Year": 1840,
    "Name": "Tinakula",
    "Location": "Santa Cruz Is-SW Pac",
    "Country": "Solomon Is.",
    "Latitude": -10.38,
    "Longitude": 165.8,
    "Elevation": 851,
    "Type": "Stratovolcano",
    "VEI": 3,
    "Agent": "P",
    "Deaths": 0
  },
  {
    "Year": 1841,
    "Name": "Kuchinoerabu-jima",
    "Location": "Ryukyu Is",
    "Country": "Japan",
    "Latitude": 30.43,
    "Longitude": 130.22,
    "Elevation": 649,
    "Type": "Stratovolcano",
    "VEI": 2,
    "Agent": "T",
    "Deaths": 0
  },
  {
    "Year": 1843,
    "Name": "Liamuiga",
    "Location": "W Indies",
    "Country": "St. Kitts & Nevis",
    "Latitude": 17.37,
    "Longitude": -62.8,
    "Elevation": 1156,
    "Type": "Stratovolcano",
    "VEI": 0,
    "Agent": "",
    "Deaths": 0
  },
  {
    "Year": 1843,
    "Name": "Soufriere Guadeloupe",
    "Location": "W Indies",
    "Country": "Guadeloupe",
    "Latitude": 16.05,
    "Longitude": -61.67,
    "Elevation": 1467,
    "Type": "Stratovolcano",
    "VEI": null,
    "Agent": "",
    "Deaths": 0
  },
  {
    "Year": 1843,
    "Name": "Lamongan",
    "Location": "Java",
    "Country": "Indonesia",
    "Latitude": -8,
    "Longitude": 113.342,
    "Elevation": 1651,
    "Type": "Stratovolcano",
    "VEI": 2,
    "Agent": "",
    "Deaths": 4
  },
  {
    "Year": 1843,
    "Name": "Etna",
    "Location": "Italy",
    "Country": "Italy",
    "Latitude": 37.734,
    "Longitude": 15.004,
    "Elevation": 3350,
    "Type": "Stratovolcano",
    "VEI": 2,
    "Agent": "L",
    "Deaths": 56
  },
  {
    "Year": 1845,
    "Name": "Soputan",
    "Location": "Sulawesi-Indonesia",
    "Country": "Indonesia",
    "Latitude": 1.108,
    "Longitude": 124.725,
    "Elevation": 1784,
    "Type": "Stratovolcano",
    "VEI": 2,
    "Agent": "",
    "Deaths": 0
  },
  {
    "Year": 1845,
    "Name": "Ruiz",
    "Location": "Colombia",
    "Country": "Colombia",
    "Latitude": 4.895,
    "Longitude": -75.322,
    "Elevation": 5321,
    "Type": "Stratovolcano",
    "VEI": 3,
    "Agent": "M",
    "Deaths": 1000
  },
  {
    "Year": 1845,
    "Name": "Hekla",
    "Location": "Iceland-S",
    "Country": "Iceland",
    "Latitude": 63.98,
    "Longitude": -19.7,
    "Elevation": 1491,
    "Type": "Stratovolcano",
    "VEI": 4,
    "Agent": "",
    "Deaths": 0
  },
  {
    "Year": 1846,
    "Name": "Taupo",
    "Location": "New Zealand",
    "Country": "New Zealand",
    "Latitude": -38.82,
    "Longitude": 176,
    "Elevation": 760,
    "Type": "Caldera",
    "VEI": null,
    "Agent": "m",
    "Deaths": 63
  },
  {
    "Year": 1846,
    "Name": "Tangkubanparahu",
    "Location": "Java",
    "Country": "Indonesia",
    "Latitude": -6.77,
    "Longitude": 107.6,
    "Elevation": 2084,
    "Type": "Stratovolcano",
    "VEI": 2,
    "Agent": "",
    "Deaths": 0
  },
  {
    "Year": 1846,
    "Name": "E-san",
    "Location": "Hokkaido-Japan",
    "Country": "Japan",
    "Latitude": 41.8,
    "Longitude": 141.17,
    "Elevation": 618,
    "Type": "Stratovolcano",
    "VEI": 1,
    "Agent": "M",
    "Deaths": 0
  },
  {
    "Year": 1847,
    "Name": "Fogo",
    "Location": "Cape Verde Is",
    "Country": "Cape Verde",
    "Latitude": 14.95,
    "Longitude": -24.35,
    "Elevation": 2829,
    "Type": "Stratovolcano",
    "VEI": 2,
    "Agent": "S",
    "Deaths": 0
  },
  {
    "Year": 1847,
    "Name": "Dieng Volc Complex",
    "Location": "Java",
    "Country": "Indonesia",
    "Latitude": -7.2,
    "Longitude": 109.92,
    "Elevation": 2565,
    "Type": "Complex volcano",
    "VEI": 2,
    "Agent": "",
    "Deaths": 0
  },
  {
    "Year": 1848,
    "Name": "Kelut",
    "Location": "Java",
    "Country": "Indonesia",
    "Latitude": -7.93,
    "Longitude": 112.308,
    "Elevation": 1731,
    "Type": "Stratovolcano",
    "VEI": 2,
    "Agent": "M",
    "Deaths": 21
  },
  {
    "Year": 1850,
    "Name": "Rabaul",
    "Location": "New Britain-SW Pac",
    "Country": "Papua New Guinea",
    "Latitude": -4.271,
    "Longitude": 152.203,
    "Elevation": 688,
    "Type": "Pyroclastic shield",
    "VEI": 2,
    "Agent": "T",
    "Deaths": 0
  },
  {
    "Year": 1853,
    "Name": "Niuafo'ou",
    "Location": "Tonga-SW Pacific",
    "Country": "Tonga",
    "Latitude": -15.6,
    "Longitude": -175.63,
    "Elevation": 260,
    "Type": "Shield volcano",
    "VEI": 0,
    "Agent": "L",
    "Deaths": 25
  },
  {
    "Year": 1853,
    "Name": "Mayon",
    "Location": "Luzon-Philippines",
    "Country": "Philippines",
    "Latitude": 13.257,
    "Longitude": 123.685,
    "Elevation": 2462,
    "Type": "Stratovolcano",
    "VEI": 3,
    "Agent": "P",
    "Deaths": 34
  },
  {
    "Year": 1853,
    "Name": "Unnamed",
    "Location": "Taiwan-E of",
    "Country": "Taiwan",
    "Latitude": 24,
    "Longitude": 121.83,
    "Elevation": 0,
    "Type": "Submarine volcano",
    "VEI": 2,
    "Agent": "",
    "Deaths": 0
  },
  {
    "Year": 1854,
    "Name": "Shiveluch",
    "Location": "Kamchatka",
    "Country": "Russia",
    "Latitude": 56.653,
    "Longitude": 161.36,
    "Elevation": 3283,
    "Type": "Stratovolcano",
    "VEI": 5,
    "Agent": "",
    "Deaths": 0
  },
  {
    "Year": 1854,
    "Name": "Aso",
    "Location": "Kyushu-Japan",
    "Country": "Japan",
    "Latitude": 32.88,
    "Longitude": 131.1,
    "Elevation": 1592,
    "Type": "Caldera",
    "VEI": 2,
    "Agent": "",
    "Deaths": 3
  },
  {
    "Year": 1854,
    "Name": "Alaid",
    "Location": "Kuril Is",
    "Country": "Russia",
    "Latitude": 50.858,
    "Longitude": 155.55,
    "Elevation": 2339,
    "Type": "Stratovolcano",
    "VEI": 3,
    "Agent": "",
    "Deaths": 0
  },
  {
    "Year": 1856,
    "Name": "Awu",
    "Location": "Sangihe Is-Indonesia",
    "Country": "Indonesia",
    "Latitude": 3.67,
    "Longitude": 125.5,
    "Elevation": 1320,
    "Type": "Stratovolcano",
    "VEI": 3,
    "Agent": "P",
    "Deaths": 2806
  },
  {
    "Year": 1856,
    "Name": "Shishaldin",
    "Location": "Aleutian Is",
    "Country": "United States",
    "Latitude": 54.75,
    "Longitude": -163.97,
    "Elevation": 2857,
    "Type": "Stratovolcano",
    "VEI": null,
    "Agent": "",
    "Deaths": 0
  },
  {
    "Year": 1856,
    "Name": "Komaga-take",
    "Location": "Hokkaido-Japan",
    "Country": "Japan",
    "Latitude": 42.07,
    "Longitude": 140.68,
    "Elevation": 1140,
    "Type": "Stratovolcano",
    "VEI": 4,
    "Agent": "P",
    "Deaths": 20
  },
  {
    "Year": 1857,
    "Name": "Umboi",
    "Location": "New Guinea-NE of",
    "Country": "Papua New Guinea",
    "Latitude": -5.589,
    "Longitude": 147.875,
    "Elevation": 1548,
    "Type": "Complex volcano",
    "VEI": null,
    "Agent": "",
    "Deaths": 0
  },
  {
    "Year": 1858,
    "Name": "Mayon",
    "Location": "Luzon-Philippines",
    "Country": "Philippines",
    "Latitude": 13.257,
    "Longitude": 123.685,
    "Elevation": 2462,
    "Type": "Stratovolcano",
    "VEI": 2,
    "Agent": "P",
    "Deaths": 0
  },
  {
    "Year": 1858,
    "Name": "Tate-yama",
    "Location": "Honshu-Japan",
    "Country": "Japan",
    "Latitude": 36.57,
    "Longitude": 137.6,
    "Elevation": 2621,
    "Type": "Stratovolcano",
    "VEI": null,
    "Agent": "m",
    "Deaths": 0
  },
  {
    "Year": 1858,
    "Name": "Tate-yama",
    "Location": "Honshu-Japan",
    "Country": "Japan",
    "Latitude": 36.57,
    "Longitude": 137.6,
    "Elevation": 2621,
    "Type": "Stratovolcano",
    "VEI": null,
    "Agent": "m",
    "Deaths": 0
  },
  {
    "Year": 1860,
    "Name": "Semeru",
    "Location": "Java",
    "Country": "Indonesia",
    "Latitude": -8.108,
    "Longitude": 112.92,
    "Elevation": 3676,
    "Type": "Stratovolcano",
    "VEI": 2,
    "Agent": "",
    "Deaths": 0
  },
  {
    "Year": 1860,
    "Name": "Fuego",
    "Location": "Guatemala",
    "Country": "Guatemala",
    "Latitude": 14.473,
    "Longitude": -90.88,
    "Elevation": 3763,
    "Type": "Stratovolcano",
    "VEI": 2,
    "Agent": "",
    "Deaths": 0
  },
  {
    "Year": 1860,
    "Name": "Grimsvotn",
    "Location": "Iceland-NE",
    "Country": "Iceland",
    "Latitude": 64.42,
    "Longitude": -17.33,
    "Elevation": 1725,
    "Type": "Caldera",
    "VEI": null,
    "Agent": "m",
    "Deaths": 1
  },
  {
    "Year": 1861,
    "Name": "Dubbi",
    "Location": "Africa-NE",
    "Country": "Eritrea",
    "Latitude": 13.58,
    "Longitude": 41.808,
    "Elevation": 1625,
    "Type": "Stratovolcano",
    "VEI": 3,
    "Agent": "",
    "Deaths": 106
  },
  {
    "Year": 1861,
    "Name": "Grimsvotn",
    "Location": "Iceland-NE",
    "Country": "Iceland",
    "Latitude": 64.42,
    "Longitude": -17.33,
    "Elevation": 1725,
    "Type": "Caldera",
    "VEI": 2,
    "Agent": "",
    "Deaths": 0
  },
  {
    "Year": 1861,
    "Name": "Makian",
    "Location": "Halmahera-Indonesia",
    "Country": "Indonesia",
    "Latitude": 0.32,
    "Longitude": 127.4,
    "Elevation": 1357,
    "Type": "Stratovolcano",
    "VEI": 4,
    "Agent": "P,I",
    "Deaths": 326
  },
  {
    "Year": 1863,
    "Name": "Yasur",
    "Location": "Vanuatu-SW Pacific",
    "Country": "Vanuatu",
    "Latitude": -19.52,
    "Longitude": 169.425,
    "Elevation": 361,
    "Type": "Stratovolcano",
    "VEI": null,
    "Agent": "",
    "Deaths": 0
  },
  {
    "Year": 1864,
    "Name": "Kelut",
    "Location": "Java",
    "Country": "Indonesia",
    "Latitude": -7.93,
    "Longitude": 112.308,
    "Elevation": 1731,
    "Type": "Stratovolcano",
    "VEI": 2,
    "Agent": "M",
    "Deaths": 54
  },
  {
    "Year": 1866,
    "Name": "Santorini",
    "Location": "Greece",
    "Country": "Greece",
    "Latitude": 36.404,
    "Longitude": 25.396,
    "Elevation": 329,
    "Type": "Shield volcano",
    "VEI": 2,
    "Agent": "T",
    "Deaths": 1
  },
  {
    "Year": 1866,
    "Name": "Ofu-Olosega",
    "Location": "Samoa-SW Pacific",
    "Country": "United States",
    "Latitude": -14.175,
    "Longitude": -169.618,
    "Elevation": 639,
    "Type": "Shield volcano",
    "VEI": 2,
    "Agent": "",
    "Deaths": 0
  },
  {
    "Year": 1867,
    "Name": "Zao",
    "Location": "Honshu-Japan",
    "Country": "Japan",
    "Latitude": 38.15,
    "Longitude": 140.45,
    "Elevation": 1841,
    "Type": "Complex volcano",
    "VEI": 2,
    "Agent": "M",
    "Deaths": 3
  },
  {
    "Year": 1868,
    "Name": "Mauna Loa",
    "Location": "Hawaiian Is",
    "Country": "United States",
    "Latitude": 19.475,
    "Longitude": -155.608,
    "Elevation": 4170,
    "Type": "Shield volcano",
    "VEI": 2,
    "Agent": "W,M",
    "Deaths": 0
  },
  {
    "Year": 1868,
    "Name": "Etna",
    "Location": "Italy",
    "Country": "Italy",
    "Latitude": 37.734,
    "Longitude": 15.004,
    "Elevation": 3350,
    "Type": "Stratovolcano",
    "VEI": null,
    "Agent": "",
    "Deaths": 0
  },
  {
    "Year": 1869,
    "Name": "Lewotobi",
    "Location": "Lesser Sunda Is",
    "Country": "Indonesia",
    "Latitude": -8.53,
    "Longitude": 122.775,
    "Elevation": 1703,
    "Type": "Stratovolcano",
    "VEI": 2,
    "Agent": "",
    "Deaths": 2
  },
  {
    "Year": 1869,
    "Name": "Lamongan",
    "Location": "Java",
    "Country": "Indonesia",
    "Latitude": -8,
    "Longitude": 113.342,
    "Elevation": 1651,
    "Type": "Stratovolcano",
    "VEI": 2,
    "Agent": "T,A",
    "Deaths": 8
  },
  {
    "Year": 1870,
    "Name": "Ruang",
    "Location": "Sangihe Is-Indonesia",
    "Country": "Indonesia",
    "Latitude": 2.28,
    "Longitude": 125.425,
    "Elevation": 725,
    "Type": "Stratovolcano",
    "VEI": 2,
    "Agent": "",
    "Deaths": 0
  },
  {
    "Year": 1870,
    "Name": "Aoba",
    "Location": "Vanuatu-SW Pacific",
    "Country": "Vanuatu",
    "Latitude": -15.4,
    "Longitude": 167.83,
    "Elevation": 1496,
    "Type": "Shield volcano",
    "VEI": 2,
    "Agent": "M",
    "Deaths": 0
  },
  {
    "Year": 1870,
    "Name": "Iliwerung",
    "Location": "Lesser Sunda Is",
    "Country": "Indonesia",
    "Latitude": -8.54,
    "Longitude": 123.59,
    "Elevation": 1018,
    "Type": "Complex volcano",
    "VEI": 3,
    "Agent": "",
    "Deaths": 0
  },
  {
    "Year": 1871,
    "Name": "Ruang",
    "Location": "Sangihe Is-Indonesia",
    "Country": "Indonesia",
    "Latitude": 2.28,
    "Longitude": 125.425,
    "Elevation": 725,
    "Type": "Stratovolcano",
    "VEI": 2,
    "Agent": "W",
    "Deaths": 0
  },
  {
    "Year": 1871,
    "Name": "Camiguin",
    "Location": "Mindanao-Philippines",
    "Country": "Philippines",
    "Latitude": 9.203,
    "Longitude": 124.673,
    "Elevation": 1332,
    "Type": "Stratovolcano",
    "VEI": 2,
    "Agent": "",
    "Deaths": 0
  },
  {
    "Year": 1871,
    "Name": "Gamalama",
    "Location": "Halmahera-Indonesia",
    "Country": "Indonesia",
    "Latitude": 0.8,
    "Longitude": 127.325,
    "Elevation": 1715,
    "Type": "Stratovolcano",
    "VEI": 2,
    "Agent": "T",
    "Deaths": 1
  },
  {
    "Year": 1871,
    "Name": "Mayon",
    "Location": "Luzon-Philippines",
    "Country": "Philippines",
    "Latitude": 13.257,
    "Longitude": 123.685,
    "Elevation": 2462,
    "Type": "Stratovolcano",
    "VEI": 3,
    "Agent": "P",
    "Deaths": 3
  },
  {
    "Year": 1872,
    "Name": "Merapi",
    "Location": "Java",
    "Country": "Indonesia",
    "Latitude": -7.542,
    "Longitude": 110.442,
    "Elevation": 2947,
    "Type": "Stratovolcano",
    "VEI": 4,
    "Agent": "T",
    "Deaths": 30
  },
  {
    "Year": 1872,
    "Name": "Merapi",
    "Location": "Java",
    "Country": "Indonesia",
    "Latitude": -7.542,
    "Longitude": 110.442,
    "Elevation": 2947,
    "Type": "Stratovolcano",
    "VEI": 4,
    "Agent": "P",
    "Deaths": 170
  },
  {
    "Year": 1872,
    "Name": "Vesuvius",
    "Location": "Italy",
    "Country": "Italy",
    "Latitude": 40.821,
    "Longitude": 14.426,
    "Elevation": 1281,
    "Type": "Complex volcano",
    "VEI": 3,
    "Agent": "L,G",
    "Deaths": 9
  },
  {
    "Year": 1872,
    "Name": "Merapi",
    "Location": "Java",
    "Country": "Indonesia",
    "Latitude": -7.542,
    "Longitude": 110.442,
    "Elevation": 2947,
    "Type": "Stratovolcano",
    "VEI": 4,
    "Agent": "P,T",
    "Deaths": 200
  },
  {
    "Year": 1872,
    "Name": "Aso",
    "Location": "Kyushu-Japan",
    "Country": "Japan",
    "Latitude": 32.88,
    "Longitude": 131.1,
    "Elevation": 1592,
    "Type": "Caldera",
    "VEI": 3,
    "Agent": "T",
    "Deaths": 4
  },
  {
    "Year": 1872,
    "Name": "Sinarka",
    "Location": "Kuril Is",
    "Country": "Russia",
    "Latitude": 48.875,
    "Longitude": 154.175,
    "Elevation": 934,
    "Type": "Stratovolcano",
    "VEI": 4,
    "Agent": "P",
    "Deaths": 0
  },
  {
    "Year": 1873,
    "Name": "Ragang",
    "Location": "Mindanao-Philippines",
    "Country": "Philippines",
    "Latitude": 7.67,
    "Longitude": 124.5,
    "Elevation": 2815,
    "Type": "Stratovolcano",
    "VEI": 2,
    "Agent": "",
    "Deaths": 0
  },
  {
    "Year": 1873,
    "Name": "Vesuvius",
    "Location": "Italy",
    "Country": "Italy",
    "Latitude": 40.821,
    "Longitude": 14.426,
    "Elevation": 1281,
    "Type": "Complex volcano",
    "VEI": null,
    "Agent": "G,T",
    "Deaths": 9
  },
  {
    "Year": 1874,
    "Name": "Miyake-jima",
    "Location": "Izu Is-Japan",
    "Country": "Japan",
    "Latitude": 34.08,
    "Longitude": 139.53,
    "Elevation": 815,
    "Type": "Stratovolcano",
    "VEI": 3,
    "Agent": "T",
    "Deaths": 1
  },
  {
    "Year": 1874,
    "Name": "Taal",
    "Location": "Luzon-Philippines",
    "Country": "Philippines",
    "Latitude": 14.002,
    "Longitude": 120.993,
    "Elevation": 400,
    "Type": "Stratovolcano",
    "VEI": 2,
    "Agent": "",
    "Deaths": 0
  },
  {
    "Year": 1875,
    "Name": "Kelut",
    "Location": "Java",
    "Country": "Indonesia",
    "Latitude": -7.93,
    "Longitude": 112.308,
    "Elevation": 1731,
    "Type": "Stratovolcano",
    "VEI": 0,
    "Agent": "m",
    "Deaths": 0
  },
  {
    "Year": 1875,
    "Name": "Askja",
    "Location": "Iceland-NE",
    "Country": "Iceland",
    "Latitude": 65.03,
    "Longitude": -16.75,
    "Elevation": 1516,
    "Type": "Stratovolcano",
    "VEI": 5,
    "Agent": "",
    "Deaths": 0
  },
  {
    "Year": 1875,
    "Name": "Mayon",
    "Location": "Luzon-Philippines",
    "Country": "Philippines",
    "Latitude": 13.257,
    "Longitude": 123.685,
    "Elevation": 2462,
    "Type": "Stratovolcano",
    "VEI": null,
    "Agent": "m",
    "Deaths": 1500
  },
  {
    "Year": 1877,
    "Name": "Mauna Loa",
    "Location": "Hawaiian Is",
    "Country": "United States",
    "Latitude": 19.475,
    "Longitude": -155.608,
    "Elevation": 4170,
    "Type": "Shield volcano",
    "VEI": 0,
    "Agent": "",
    "Deaths": 0
  },
  {
    "Year": 1877,
    "Name": "Cotopaxi",
    "Location": "Ecuador",
    "Country": "Ecuador",
    "Latitude": -0.677,
    "Longitude": -78.436,
    "Elevation": 5911,
    "Type": "Stratovolcano",
    "VEI": 4,
    "Agent": "M",
    "Deaths": 340
  },
  {
    "Year": 1878,
    "Name": "Yasur",
    "Location": "Vanuatu-SW Pacific",
    "Country": "Vanuatu",
    "Latitude": -19.52,
    "Longitude": 169.425,
    "Elevation": 361,
    "Type": "Stratovolcano",
    "VEI": 3,
    "Agent": "",
    "Deaths": 0
  },
  {
    "Year": 1878,
    "Name": "Rabaul",
    "Location": "New Britain-SW Pac",
    "Country": "Papua New Guinea",
    "Latitude": -4.271,
    "Longitude": 152.203,
    "Elevation": 688,
    "Type": "Pyroclastic shield",
    "VEI": 3,
    "Agent": "T",
    "Deaths": 1
  },
  {
    "Year": 1878,
    "Name": "Yasur",
    "Location": "Vanuatu-SW Pacific",
    "Country": "Vanuatu",
    "Latitude": -19.52,
    "Longitude": 169.425,
    "Elevation": 361,
    "Type": "Stratovolcano",
    "VEI": null,
    "Agent": "",
    "Deaths": 0
  },
  {
    "Year": 1878,
    "Name": "Okmok",
    "Location": "Aleutian Is",
    "Country": "United States",
    "Latitude": 53.42,
    "Longitude": -168.13,
    "Elevation": 1073,
    "Type": "Shield volcano",
    "VEI": 2,
    "Agent": "",
    "Deaths": 0
  },
  {
    "Year": 1879,
    "Name": "Stromboli",
    "Location": "Italy",
    "Country": "Italy",
    "Latitude": 38.789,
    "Longitude": 15.213,
    "Elevation": 926,
    "Type": "Stratovolcano",
    "VEI": 2,
    "Agent": "",
    "Deaths": 0
  },
  {
    "Year": 1883,
    "Name": "Karthala",
    "Location": "Indian O-W",
    "Country": "Comoros",
    "Latitude": -11.75,
    "Longitude": 43.38,
    "Elevation": 2361,
    "Type": "Shield volcano",
    "VEI": 2,
    "Agent": "L",
    "Deaths": 0
  },
  {
    "Year": 1883,
    "Name": "Krakatau",
    "Location": "Indonesia",
    "Country": "Indonesia",
    "Latitude": -6.102,
    "Longitude": 105.423,
    "Elevation": 813,
    "Type": "Caldera",
    "VEI": 6,
    "Agent": "W,P,I",
    "Deaths": 2000
  },
  {
    "Year": 1883,
    "Name": "Augustine",
    "Location": "Alaska-SW",
    "Country": "United States",
    "Latitude": 59.37,
    "Longitude": -153.42,
    "Elevation": 1252,
    "Type": "Lava dome",
    "VEI": 4,
    "Agent": "",
    "Deaths": 8
  },
  {
    "Year": 1883,
    "Name": "Krakatau",
    "Location": "Indonesia",
    "Country": "Indonesia",
    "Latitude": -6.102,
    "Longitude": 105.423,
    "Elevation": 813,
    "Type": "Caldera",
    "VEI": null,
    "Agent": "",
    "Deaths": 0
  },
  {
    "Year": 1883,
    "Name": "Bagana",
    "Location": "Bougainville-SW Paci",
    "Country": "Papua New Guinea",
    "Latitude": -6.14,
    "Longitude": 155.195,
    "Elevation": 1750,
    "Type": "Lava cone",
    "VEI": 3,
    "Agent": "T",
    "Deaths": 0
  },
  {
    "Year": 1884,
    "Name": "Krakatau",
    "Location": "Indonesia",
    "Country": "Indonesia",
    "Latitude": -6.102,
    "Longitude": 105.423,
    "Elevation": 813,
    "Type": "Caldera",
    "VEI": null,
    "Agent": "",
    "Deaths": 0
  },
  {
    "Year": 1885,
    "Name": "Semeru",
    "Location": "Java",
    "Country": "Indonesia",
    "Latitude": -8.108,
    "Longitude": 112.92,
    "Elevation": 3676,
    "Type": "Stratovolcano",
    "VEI": 2,
    "Agent": "A",
    "Deaths": 74
  },
  {
    "Year": 1885,
    "Name": "Purace",
    "Location": "Colombia",
    "Country": "Colombia",
    "Latitude": 2.32,
    "Longitude": -76.4,
    "Elevation": 4650,
    "Type": "Stratovolcano",
    "VEI": 3,
    "Agent": "",
    "Deaths": 0
  },
  {
    "Year": 1886,
    "Name": "Tungurahua",
    "Location": "Ecuador",
    "Country": "Ecuador",
    "Latitude": -1.467,
    "Longitude": -78.442,
    "Elevation": 5023,
    "Type": "Stratovolcano",
    "VEI": 4,
    "Agent": "P",
    "Deaths": 2
  },
  {
    "Year": 1886,
    "Name": "Okataina",
    "Location": "New Zealand",
    "Country": "New Zealand",
    "Latitude": -38.12,
    "Longitude": 176.5,
    "Elevation": 1111,
    "Type": "Lava dome",
    "VEI": 2,
    "Agent": "T",
    "Deaths": 153
  },
  {
    "Year": 1886,
    "Name": "Niuafo'ou",
    "Location": "Tonga-SW Pacific",
    "Country": "Tonga",
    "Latitude": -15.6,
    "Longitude": -175.63,
    "Elevation": 260,
    "Type": "Shield volcano",
    "VEI": 4,
    "Agent": "",
    "Deaths": 0
  },
  {
    "Year": 1887,
    "Name": "Mayon",
    "Location": "Luzon-Philippines",
    "Country": "Philippines",
    "Latitude": 13.257,
    "Longitude": 123.685,
    "Elevation": 2462,
    "Type": "Stratovolcano",
    "VEI": 3,
    "Agent": "T",
    "Deaths": 15
  },
  {
    "Year": 1888,
    "Name": "Ritter Island",
    "Location": "New Guinea-NE of",
    "Country": "Papua New Guinea",
    "Latitude": -5.52,
    "Longitude": 148.121,
    "Elevation": 140,
    "Type": "Stratovolcano",
    "VEI": 3,
    "Agent": "W",
    "Deaths": 0
  },
  {
    "Year": 1888,
    "Name": "Bandai",
    "Location": "Honshu-Japan",
    "Country": "Japan",
    "Latitude": 37.6,
    "Longitude": 140.08,
    "Elevation": 1819,
    "Type": "Stratovolcano",
    "VEI": 4,
    "Agent": "A,P",
    "Deaths": 461
  },
  {
    "Year": 1889,
    "Name": "Banua Wuhu",
    "Location": "Sangihe Is-Indonesia",
    "Country": "Indonesia",
    "Latitude": 3.138,
    "Longitude": 125.491,
    "Elevation": -5,
    "Type": "Submarine volcano",
    "VEI": 2,
    "Agent": "",
    "Deaths": 0
  },
  {
    "Year": 1890,
    "Name": "Makian",
    "Location": "Halmahera-Indonesia",
    "Country": "Indonesia",
    "Latitude": 0.32,
    "Longitude": 127.4,
    "Elevation": 1357,
    "Type": "Stratovolcano",
    "VEI": 2,
    "Agent": "",
    "Deaths": 0
  },
  {
    "Year": 1890,
    "Name": "Victory",
    "Location": "New Guinea",
    "Country": "Papua New Guinea",
    "Latitude": -9.2,
    "Longitude": 149.07,
    "Elevation": 1925,
    "Type": "Stratovolcano",
    "VEI": 2,
    "Agent": "P",
    "Deaths": 0
  },
  {
    "Year": 1892,
    "Name": "Sorikmarapi",
    "Location": "Sumatra",
    "Country": "Indonesia",
    "Latitude": 0.686,
    "Longitude": 99.539,
    "Elevation": 2145,
    "Type": "Stratovolcano",
    "VEI": 2,
    "Agent": "M",
    "Deaths": 180
  },
  {
    "Year": 1892,
    "Name": "Awu",
    "Location": "Sangihe Is-Indonesia",
    "Country": "Indonesia",
    "Latitude": 3.67,
    "Longitude": 125.5,
    "Elevation": 1320,
    "Type": "Stratovolcano",
    "VEI": 3,
    "Agent": "P,M",
    "Deaths": 1532
  },
  {
    "Year": 1892,
    "Name": "Tofua",
    "Location": "Tonga-SW Pacific",
    "Country": "Tonga",
    "Latitude": -19.75,
    "Longitude": -175.07,
    "Elevation": 512,
    "Type": "Caldera",
    "VEI": 2,
    "Agent": "",
    "Deaths": 0
  },
  {
    "Year": 1893,
    "Name": "Calbuco",
    "Location": "Chile-S",
    "Country": "Chile",
    "Latitude": -41.326,
    "Longitude": -72.614,
    "Elevation": 2003,
    "Type": "Stratovolcano",
    "VEI": 4,
    "Agent": "",
    "Deaths": 0
  },
  {
    "Year": 1893,
    "Name": "Azuma",
    "Location": "Honshu-Japan",
    "Country": "Japan",
    "Latitude": 37.73,
    "Longitude": 140.25,
    "Elevation": 2024,
    "Type": "Stratovolcano",
    "VEI": 2,
    "Agent": "T",
    "Deaths": 2
  },
  {
    "Year": 1894,
    "Name": "Ambrym",
    "Location": "Vanuatu-SW Pacific",
    "Country": "Vanuatu",
    "Latitude": -16.25,
    "Longitude": 168.12,
    "Elevation": 1334,
    "Type": "Pyroclastic shield",
    "VEI": 3,
    "Agent": "T,L",
    "Deaths": 10
  },
  {
    "Year": 1895,
    "Name": "Semeru",
    "Location": "Java",
    "Country": "Indonesia",
    "Latitude": -8.108,
    "Longitude": 112.92,
    "Elevation": 3676,
    "Type": "Stratovolcano",
    "VEI": 2,
    "Agent": "",
    "Deaths": 0
  },
  {
    "Year": 1895,
    "Name": "Karkar",
    "Location": "New Guinea-NE of",
    "Country": "Papua New Guinea",
    "Latitude": -4.649,
    "Longitude": 145.964,
    "Elevation": 1839,
    "Type": "Stratovolcano",
    "VEI": 2,
    "Agent": "I,M",
    "Deaths": 1
  },
  {
    "Year": 1895,
    "Name": "Kirishima",
    "Location": "Kyushu-Japan",
    "Country": "Japan",
    "Latitude": 31.93,
    "Longitude": 130.87,
    "Elevation": 1700,
    "Type": "Shield volcano",
    "VEI": 2,
    "Agent": "T",
    "Deaths": 4
  },
  {
    "Year": 1895,
    "Name": "Dakataua",
    "Location": "New Britain-SW Pac",
    "Country": "Papua New Guinea",
    "Latitude": -5.056,
    "Longitude": 150.108,
    "Elevation": 400,
    "Type": "Caldera",
    "VEI": 2,
    "Agent": "?",
    "Deaths": 0
  },
  {
    "Year": 1896,
    "Name": "Kirishima",
    "Location": "Kyushu-Japan",
    "Country": "Japan",
    "Latitude": 31.93,
    "Longitude": 130.87,
    "Elevation": 1700,
    "Type": "Shield volcano",
    "VEI": 2,
    "Agent": "T",
    "Deaths": 1
  },
  {
    "Year": 1897,
    "Name": "Tinakula",
    "Location": "Santa Cruz Is-SW Pac",
    "Country": "Solomon Is.",
    "Latitude": -10.38,
    "Longitude": 165.8,
    "Elevation": 851,
    "Type": "Stratovolcano",
    "VEI": 2,
    "Agent": "W",
    "Deaths": 0
  },
  {
    "Year": 1897,
    "Name": "Mayon",
    "Location": "Luzon-Philippines",
    "Country": "Philippines",
    "Latitude": 13.257,
    "Longitude": 123.685,
    "Elevation": 2462,
    "Type": "Stratovolcano",
    "VEI": 3,
    "Agent": "P,T,M",
    "Deaths": 350
  },
  {
    "Year": 1899,
    "Name": "Dona Juana",
    "Location": "Colombia",
    "Country": "Colombia",
    "Latitude": 1.47,
    "Longitude": -76.92,
    "Elevation": 4150,
    "Type": "Stratovolcano",
    "VEI": 4,
    "Agent": "P",
    "Deaths": 55
  },
  {
    "Year": 1899,
    "Name": "Manam",
    "Location": "New Guinea-NE of",
    "Country": "Papua New Guinea",
    "Latitude": -4.1,
    "Longitude": 145.061,
    "Elevation": 1807,
    "Type": "Stratovolcano",
    "VEI": 2,
    "Agent": "",
    "Deaths": 2
  },
  {
    "Year": 1900,
    "Name": "Asama",
    "Location": "Honshu-Japan",
    "Country": "Japan",
    "Latitude": 36.4,
    "Longitude": 138.53,
    "Elevation": 2560,
    "Type": "Complex volcano",
    "VEI": 2,
    "Agent": "",
    "Deaths": 25
  },
  {
    "Year": 1900,
    "Name": "Kirishima",
    "Location": "Kyushu-Japan",
    "Country": "Japan",
    "Latitude": 31.93,
    "Longitude": 130.87,
    "Elevation": 1700,
    "Type": "Shield volcano",
    "VEI": 2,
    "Agent": "",
    "Deaths": 2
  },
  {
    "Year": 1900,
    "Name": "Adatara",
    "Location": "Honshu-Japan",
    "Country": "Japan",
    "Latitude": 37.62,
    "Longitude": 140.28,
    "Elevation": 1718,
    "Type": "Stratovolcano",
    "VEI": 2,
    "Agent": "T",
    "Deaths": 72
  },
  {
    "Year": 1900,
    "Name": "Tullu Moje",
    "Location": "Africa-NE",
    "Country": "Ethiopia",
    "Latitude": 8.158,
    "Longitude": 39.13,
    "Elevation": 2349,
    "Type": "Pumice cone",
    "VEI": null,
    "Agent": "",
    "Deaths": 0
  },
  {
    "Year": 1901,
    "Name": "Kelut",
    "Location": "Java",
    "Country": "Indonesia",
    "Latitude": -7.93,
    "Longitude": 112.308,
    "Elevation": 1731,
    "Type": "Stratovolcano",
    "VEI": 3,
    "Agent": "",
    "Deaths": 0
  },
  {
    "Year": 1901,
    "Name": "Epi",
    "Location": "Vanuatu-SW Pacific",
    "Country": "Vanuatu",
    "Latitude": -16.68,
    "Longitude": 168.37,
    "Elevation": 833,
    "Type": "Stratovolcano",
    "VEI": null,
    "Agent": "",
    "Deaths": 0
  },
  {
    "Year": 1902,
    "Name": "Pelee",
    "Location": "W Indies",
    "Country": "Martinique",
    "Latitude": 14.82,
    "Longitude": -61.17,
    "Elevation": 1397,
    "Type": "Stratovolcano",
    "VEI": null,
    "Agent": "",
    "Deaths": 23
  },
  {
    "Year": 1902,
    "Name": "Soufriere St. Vincent",
    "Location": "W Indies",
    "Country": "St. Vincent & the Grenadines",
    "Latitude": 13.33,
    "Longitude": -61.18,
    "Elevation": 1220,
    "Type": "Stratovolcano",
    "VEI": 4,
    "Agent": "P",
    "Deaths": 1680
  },
  {
    "Year": 1902,
    "Name": "Pelee",
    "Location": "W Indies",
    "Country": "Martinique",
    "Latitude": 14.82,
    "Longitude": -61.17,
    "Elevation": 1397,
    "Type": "Stratovolcano",
    "VEI": 4,
    "Agent": "P",
    "Deaths": 28000
  },
  {
    "Year": 1902,
    "Name": "Pelee",
    "Location": "W Indies",
    "Country": "Martinique",
    "Latitude": 14.82,
    "Longitude": -61.17,
    "Elevation": 1397,
    "Type": "Stratovolcano",
    "VEI": null,
    "Agent": "",
    "Deaths": 0
  },
  {
    "Year": 1902,
    "Name": "Tori-shima",
    "Location": "Izu Is-Japan",
    "Country": "Japan",
    "Latitude": 30.48,
    "Longitude": 140.32,
    "Elevation": 403,
    "Type": "Stratovolcano",
    "VEI": 3,
    "Agent": "",
    "Deaths": 125
  },
  {
    "Year": 1902,
    "Name": "Pelee",
    "Location": "W Indies",
    "Country": "Martinique",
    "Latitude": 14.82,
    "Longitude": -61.17,
    "Elevation": 1397,
    "Type": "Stratovolcano",
    "VEI": 4,
    "Agent": "P",
    "Deaths": 1500
  },
  {
    "Year": 1902,
    "Name": "Santa Maria",
    "Location": "Guatemala",
    "Country": "Guatemala",
    "Latitude": 14.756,
    "Longitude": -91.552,
    "Elevation": 3772,
    "Type": "Stratovolcano",
    "VEI": 6,
    "Agent": "T,G",
    "Deaths": 2500
  },
  {
    "Year": 1902,
    "Name": "Merapi",
    "Location": "Java",
    "Country": "Indonesia",
    "Latitude": -7.542,
    "Longitude": 110.442,
    "Elevation": 2947,
    "Type": "Stratovolcano",
    "VEI": 2,
    "Agent": "P",
    "Deaths": 16
  },
  {
    "Year": 1903,
    "Name": "Okataina",
    "Location": "New Zealand",
    "Country": "New Zealand",
    "Latitude": -38.12,
    "Longitude": 176.5,
    "Elevation": 1111,
    "Type": "Lava dome",
    "VEI": 1,
    "Agent": "T",
    "Deaths": 4
  },
  {
    "Year": 1903,
    "Name": "Karthala",
    "Location": "Indian O-W",
    "Country": "Comoros",
    "Latitude": -11.75,
    "Longitude": 43.38,
    "Elevation": 2361,
    "Type": "Shield volcano",
    "VEI": null,
    "Agent": "G",
    "Deaths": 17
  },
  {
    "Year": 1904,
    "Name": "Karthala",
    "Location": "Indian O-W",
    "Country": "Comoros",
    "Latitude": -11.75,
    "Longitude": 43.38,
    "Elevation": 2361,
    "Type": "Shield volcano",
    "VEI": 2,
    "Agent": "L",
    "Deaths": 1
  },
  {
    "Year": 1905,
    "Name": "Vesuvius",
    "Location": "Italy",
    "Country": "Italy",
    "Latitude": 40.821,
    "Longitude": 14.426,
    "Elevation": 1281,
    "Type": "Complex volcano",
    "VEI": 2,
    "Agent": "T",
    "Deaths": 1
  },
  {
    "Year": 1905,
    "Name": "Savai'i",
    "Location": "Samoa-SW Pacific",
    "Country": "Samoa",
    "Latitude": -13.612,
    "Longitude": -172.525,
    "Elevation": 1858,
    "Type": "Shield volcano",
    "VEI": 2,
    "Agent": "",
    "Deaths": 0
  },
  {
    "Year": 1906,
    "Name": "Vesuvius",
    "Location": "Italy",
    "Country": "Italy",
    "Latitude": 40.821,
    "Longitude": 14.426,
    "Elevation": 1281,
    "Type": "Complex volcano",
    "VEI": 3,
    "Agent": "T,L",
    "Deaths": 350
  },
  {
    "Year": 1907,
    "Name": "Unnamed",
    "Location": "Tonga-SW Pacific",
    "Country": "Tonga",
    "Latitude": -21.38,
    "Longitude": -175.65,
    "Elevation": -500,
    "Type": "Submarine volcano",
    "VEI": 0,
    "Agent": "",
    "Deaths": 0
  },
  {
    "Year": 1907,
    "Name": "Alayta",
    "Location": "Africa-NE",
    "Country": "Ethiopia",
    "Latitude": 12.88,
    "Longitude": 40.57,
    "Elevation": 1501,
    "Type": "Shield volcano",
    "VEI": 2,
    "Agent": "",
    "Deaths": 0
  },
  {
    "Year": 1907,
    "Name": "Lewotobi",
    "Location": "Lesser Sunda Is",
    "Country": "Indonesia",
    "Latitude": -8.53,
    "Longitude": 122.775,
    "Elevation": 1703,
    "Type": "Stratovolcano",
    "VEI": 2,
    "Agent": "",
    "Deaths": 1
  },
  {
    "Year": 1907,
    "Name": "Savai'i",
    "Location": "Samoa-SW Pacific",
    "Country": "Samoa",
    "Latitude": -13.612,
    "Longitude": -172.525,
    "Elevation": 1858,
    "Type": "Shield volcano",
    "VEI": null,
    "Agent": "",
    "Deaths": 0
  },
  {
    "Year": 1909,
    "Name": "Cameroon, Mt.",
    "Location": "Africa-W",
    "Country": "Cameroon",
    "Latitude": 4.203,
    "Longitude": 9.17,
    "Elevation": 4095,
    "Type": "Stratovolcano",
    "VEI": 2,
    "Agent": "",
    "Deaths": 0
  },
  {
    "Year": 1909,
    "Name": "Semeru",
    "Location": "Java",
    "Country": "Indonesia",
    "Latitude": -8.108,
    "Longitude": 112.92,
    "Elevation": 3676,
    "Type": "Stratovolcano",
    "VEI": 2,
    "Agent": "m",
    "Deaths": 221
  },